[{"OpenStreetMapId":"26862532","Name":"Basališče","NameNative":"Basališče","NameEnglish":"Basališče","Lat":"46.3901952","Lon":"15.2400871","Category":"peak","Elevation":null},{"OpenStreetMapId":"26862589","Name":"Blegoš","NameNative":"Blegoš","NameEnglish":"Blegoš","Lat":"46.1649365","Lon":"14.113529","Category":"peak","Elevation":null},{"OpenStreetMapId":"26862596","Name":"Boč","NameNative":"Boč","NameEnglish":"Boč","Lat":"46.2895884","Lon":"15.5997473","Category":"peak","Elevation":null},{"OpenStreetMapId":"26862749","Name":"Črni vrh","NameNative":"Črni vrh","NameEnglish":"Črni vrh","Lat":"46.485617","Lon":"15.2332048","Category":"peak","Elevation":null},{"OpenStreetMapId":"26862888","Name":"Freiberg","NameNative":"Freiberg","NameEnglish":"Freiberg","Lat":"46.4888199","Lon":"14.4093419","Category":"peak","Elevation":null},{"OpenStreetMapId":"26862994","Name":"Govca (Olševa)","NameNative":"Govca (Olševa)","NameEnglish":"Govca (Olševa)","Lat":"46.4495791","Lon":"14.6855655","Category":"peak","Elevation":null},{"OpenStreetMapId":"26863275","Name":"Jerebikovec","NameNative":"Jerebikovec","NameEnglish":"Jerebikovec","Lat":"46.4429131","Lon":"13.9555566","Category":"peak","Elevation":null},{"OpenStreetMapId":"26863316","Name":"Kanin / Canin","NameNative":"Kanin / Canin","NameEnglish":"Kanin / Canin","Lat":"46.360145","Lon":"13.4390292","Category":"peak","Elevation":null},{"OpenStreetMapId":"26863417","Name":"Kordeževa glava","NameNative":"Kordeževa glava","NameEnglish":"Kordeževa glava","Lat":"46.50028","Lon":"14.7800517","Category":"peak","Elevation":null},{"OpenStreetMapId":"26863420","Name":"Košutnikov turn / Koschutnikturm","NameNative":"Košutnikov turn / Koschutnikturm","NameEnglish":"Košutnikov turn / Koschutnikturm","Lat":"46.4464282","Lon":"14.4101188","Category":"peak","Elevation":null},{"OpenStreetMapId":"26863438","Name":"Krn","NameNative":"Krn","NameEnglish":"Krn","Lat":"46.2662189","Lon":"13.6588774","Category":"peak","Elevation":null},{"OpenStreetMapId":"26863446","Name":"Kum","NameNative":"Kum","NameEnglish":"Kum","Lat":"46.0883324","Lon":"15.0741663","Category":"peak","Elevation":null},{"OpenStreetMapId":"26863902","Name":"Monte Mia","NameNative":"Monte Mia","NameEnglish":"Monte Mia","Lat":"46.2216914","Lon":"13.4786332","Category":"peak","Elevation":null},{"OpenStreetMapId":"26864352","Name":"Porezen","NameNative":"Porezen","NameEnglish":"Porezen","Lat":"46.1771813","Lon":"13.9743268","Category":"peak","Elevation":null},{"OpenStreetMapId":"26864358","Name":"Prisank","NameNative":"Prisank","NameEnglish":"Prisojnik","Lat":"46.4247004","Lon":"13.7697143","Category":"peak","Elevation":null},{"OpenStreetMapId":"26864590","Name":"Škrlatica","NameNative":"Škrlatica","NameEnglish":"Škrlatica","Lat":"46.432805","Lon":"13.8209596","Category":"peak","Elevation":null},{"OpenStreetMapId":"26864723","Name":"Veliki Snežnik","NameNative":"Veliki Snežnik","NameEnglish":"Veliki Snežnik","Lat":"45.5885047","Lon":"14.4475649","Category":"peak","Elevation":null},{"OpenStreetMapId":"26864799","Name":"Stol","NameNative":"Stol","NameEnglish":"Stol","Lat":"46.27842","Lon":"13.4539817","Category":"peak","Elevation":null},{"OpenStreetMapId":"26864845","Name":"Storžič","NameNative":"Storžič","NameEnglish":"Storžič","Lat":"46.3502099","Lon":"14.4048162","Category":"peak","Elevation":null},{"OpenStreetMapId":"26864864","Name":"Suhi vrh","NameNative":"Suhi vrh","NameEnglish":"Suhi vrh","Lat":"45.7983097","Lon":"14.0670522","Category":"peak","Elevation":null},{"OpenStreetMapId":"26864958","Name":"Triglav","NameNative":"Triglav","NameEnglish":"Triglav","Lat":"46.3782982","Lon":"13.8365822","Category":"peak","Elevation":null},{"OpenStreetMapId":"26865108","Name":"Vivodnik","NameNative":"Vivodnik","NameEnglish":"Vivodnik","Lat":"46.2573627","Lon":"14.8163271","Category":"peak","Elevation":null},{"OpenStreetMapId":"36158444","Name":"Žavcarjev vrh","NameNative":"Žavcarjev vrh","NameEnglish":"Žavcarjev vrh","Lat":"46.600934","Lon":"15.523213","Category":"peak","Elevation":null},{"OpenStreetMapId":"36439170","Name":"Bellevue","NameNative":"Bellevue","NameEnglish":"Bellevue","Lat":"46.5158827","Lon":"15.5794708","Category":"peak","Elevation":null},{"OpenStreetMapId":"45450434","Name":"Kriška gora","NameNative":"Kriška gora","NameEnglish":"Kriška gora","Lat":"46.3516297","Lon":"14.3324367","Category":"peak","Elevation":null},{"OpenStreetMapId":"46849587","Name":"Drenikov vrh","NameNative":"Drenikov vrh","NameEnglish":"Drenikov vrh","Lat":"46.0587163","Lon":"14.4828726","Category":"peak","Elevation":null},{"OpenStreetMapId":"56595087","Name":"Onger","NameNative":"Onger","NameEnglish":"Onger","Lat":"46.1347876","Lon":"14.5572005","Category":"peak","Elevation":null},{"OpenStreetMapId":"59936970","Name":"Pugled","NameNative":"Pugled","NameEnglish":"Pugled","Lat":"46.0103108","Lon":"14.6381946","Category":"peak","Elevation":null},{"OpenStreetMapId":"59939891","Name":"Debenji vrh","NameNative":"Debenji vrh","NameEnglish":"Debenji vrh","Lat":"46.0510713","Lon":"14.6295127","Category":"peak","Elevation":null},{"OpenStreetMapId":"60486460","Name":"Bistra","NameNative":"Bistra","NameEnglish":"Bistra","Lat":"45.9463822","Lon":"14.3328084","Category":"castle","Elevation":null},{"OpenStreetMapId":"60692917","Name":"Reški vrh","NameNative":"Reški vrh","NameEnglish":"Reški vrh","Lat":"46.5048889","Lon":"15.54295","Category":"peak","Elevation":null},{"OpenStreetMapId":"83593962","Name":"Ακρωτήρι Δράστης","NameNative":"Ακρωτήρι Δράστης","NameEnglish":"Cape Drastis","Lat":"39.7987082","Lon":"19.673401","Category":"peak","Elevation":null},{"OpenStreetMapId":"90555440","Name":"Peričnik","NameNative":"Peričnik","NameEnglish":"Peričnik","Lat":"46.4392429","Lon":"13.8936357","Category":"waterfall","Elevation":null},{"OpenStreetMapId":"96063466","Name":"Škofjeloski grad","NameNative":"Škofjeloski grad","NameEnglish":"Škofjeloski grad","Lat":"46.1650797","Lon":"14.3052366","Category":"castle","Elevation":null},{"OpenStreetMapId":"124221843","Name":"Sveta Ana","NameNative":"Sveta Ana","NameEnglish":"Sveta Ana","Lat":"45.9694506","Lon":"14.4224649","Category":"peak","Elevation":null},{"OpenStreetMapId":"124222044","Name":"Krim","NameNative":"Krim","NameEnglish":"Mount Krim","Lat":"45.928586","Lon":"14.4712925","Category":"peak","Elevation":null},{"OpenStreetMapId":"171105581","Name":"Šmarna gora","NameNative":"Šmarna gora","NameEnglish":"Šmarna gora","Lat":"46.1298579","Lon":"14.463901","Category":"peak","Elevation":null},{"OpenStreetMapId":"201330645","Name":"Slap Boka","NameNative":"Slap Boka","NameEnglish":"Slap Boka","Lat":"46.3220509","Lon":"13.4817225","Category":"waterfall","Elevation":null},{"OpenStreetMapId":"206177207","Name":"Rodica","NameNative":"Rodica","NameEnglish":"Rodica","Lat":"46.2277024","Lon":"13.8652269","Category":"peak","Elevation":null},{"OpenStreetMapId":"206177219","Name":"Šija","NameNative":"Šija","NameEnglish":"Šija","Lat":"46.2386466","Lon":"13.8340636","Category":"peak","Elevation":null},{"OpenStreetMapId":"248088093","Name":"Dvorec Haasberg","NameNative":"Dvorec Haasberg","NameEnglish":"Dvorec Haasberg","Lat":"45.8278264","Lon":"14.2649764","Category":"castle","Elevation":null},{"OpenStreetMapId":"249872909","Name":"Grančišče","NameNative":"Grančišče","NameEnglish":"Grančišče","Lat":"46.4591047","Lon":"13.9328006","Category":"peak","Elevation":null},{"OpenStreetMapId":"249873130","Name":"Vrtaški vrh","NameNative":"Vrtaški vrh","NameEnglish":"Vrtaški vrh","Lat":"46.4552785","Lon":"13.8878352","Category":"peak","Elevation":null},{"OpenStreetMapId":"252287100","Name":"Sv. Urban","NameNative":"Sv. Urban","NameEnglish":"Sv. Urban","Lat":"46.6037379","Lon":"15.6054217","Category":"peak","Elevation":null},{"OpenStreetMapId":"252493391","Name":"Zvoh","NameNative":"Zvoh","NameEnglish":"Zvoh","Lat":"46.3088586","Lon":"14.5415901","Category":"peak","Elevation":null},{"OpenStreetMapId":"252493392","Name":"Krvavec","NameNative":"Krvavec","NameEnglish":"Krvavec","Lat":"46.2996823","Lon":"14.5367454","Category":"peak","Elevation":null},{"OpenStreetMapId":"260052041","Name":"Mulejev vrh","NameNative":"Mulejev vrh","NameEnglish":"Mulejev vrh","Lat":"46.4712854","Lon":"15.3130124","Category":"peak","Elevation":null},{"OpenStreetMapId":"260052042","Name":"Ostruščica","NameNative":"Ostruščica","NameEnglish":"Ostruščica","Lat":"46.4585083","Lon":"15.323525","Category":"peak","Elevation":null},{"OpenStreetMapId":"260052043","Name":"Rogla","NameNative":"Rogla","NameEnglish":"Rogla","Lat":"46.456485","Lon":"15.345948","Category":"peak","Elevation":null},{"OpenStreetMapId":"260052044","Name":"Kraguljišče","NameNative":"Kraguljišče","NameEnglish":"Kraguljišče","Lat":"46.4478139","Lon":"15.3158222","Category":"peak","Elevation":null},{"OpenStreetMapId":"260052045","Name":"Pesek","NameNative":"Pesek","NameEnglish":"Pesek","Lat":"46.4685139","Lon":"15.3416194","Category":"peak","Elevation":null},{"OpenStreetMapId":"260052046","Name":"Mariborski razglednik (Cigelnica)","NameNative":"Mariborski razglednik (Cigelnica)","NameEnglish":"Mariborski razglednik (Cigelnica)","Lat":"46.5119139","Lon":"15.5652639","Category":"peak","Elevation":null},{"OpenStreetMapId":"260052047","Name":"Sedovec","NameNative":"Sedovec","NameEnglish":"Sedovec","Lat":"46.4963513","Lon":"15.5348819","Category":"peak","Elevation":null},{"OpenStreetMapId":"260120901","Name":"Ledinekov kogel","NameNative":"Ledinekov kogel","NameEnglish":"Ledinekov kogel","Lat":"46.5066667","Lon":"15.5548778","Category":"peak","Elevation":null},{"OpenStreetMapId":"260120902","Name":"Žigartov vrh","NameNative":"Žigartov vrh","NameEnglish":"Žigartov vrh","Lat":"46.4945538","Lon":"15.4870761","Category":"peak","Elevation":null},{"OpenStreetMapId":"260120904","Name":"Klopni vrh","NameNative":"Klopni vrh","NameEnglish":"Klopni vrh","Lat":"46.4980761","Lon":"15.3921011","Category":"peak","Elevation":null},{"OpenStreetMapId":"267033313","Name":null,"NameNative":null,"NameEnglish":null,"Lat":"45.6457145","Lon":"15.3569405","Category":"waterfall","Elevation":null},{"OpenStreetMapId":"267033374","Name":null,"NameNative":null,"NameEnglish":null,"Lat":"45.5845828","Lon":"15.298588","Category":"waterfall","Elevation":null},{"OpenStreetMapId":"273881563","Name":"Sinji vrh","NameNative":"Sinji vrh","NameEnglish":"Sinji vrh","Lat":"45.9083054","Lon":"13.9373158","Category":"peak","Elevation":null},{"OpenStreetMapId":"279183715","Name":"Molnik","NameNative":"Molnik","NameEnglish":"Molnik","Lat":"46.008206","Lon":"14.5991078","Category":"peak","Elevation":null},{"OpenStreetMapId":"282024243","Name":"Sveti Vid","NameNative":"Sveti Vid","NameEnglish":"Sveti Vid","Lat":"45.884912","Lon":"15.5977641","Category":"peak","Elevation":null},{"OpenStreetMapId":"282528795","Name":"Veliki Javornik","NameNative":"Veliki Javornik","NameEnglish":"Veliki Javornik","Lat":"46.0677779","Lon":"15.4283746","Category":"peak","Elevation":null},{"OpenStreetMapId":"282528796","Name":"Veliki Koprivnik","NameNative":"Veliki Koprivnik","NameEnglish":"Veliki Koprivnik","Lat":"46.07077","Lon":"15.4488244","Category":"peak","Elevation":null},{"OpenStreetMapId":"282732382","Name":"Veliki Špiček","NameNative":"Veliki Špiček","NameEnglish":"Veliki Špiček","Lat":"46.0253852","Lon":"15.6493538","Category":"peak","Elevation":null},{"OpenStreetMapId":"286802626","Name":"Donačka gora","NameNative":"Donačka gora","NameEnglish":"Donačka gora","Lat":"46.2627148","Lon":"15.7423038","Category":"peak","Elevation":null},{"OpenStreetMapId":"286802684","Name":"Donačka gora","NameNative":"Donačka gora","NameEnglish":"Donačka gora","Lat":"46.2634732","Lon":"15.7475724","Category":"peak","Elevation":null},{"OpenStreetMapId":"286946834","Name":"Velika Milanja","NameNative":"Velika Milanja","NameEnglish":"Velika Milanja","Lat":"45.5944755","Lon":"14.3095853","Category":"peak","Elevation":null},{"OpenStreetMapId":"286950927","Name":"Planinc","NameNative":"Planinc","NameEnglish":"Planinc","Lat":"45.5582456","Lon":"14.3990057","Category":"peak","Elevation":null},{"OpenStreetMapId":"287626524","Name":"Tojzlov vrh","NameNative":"Tojzlov vrh","NameEnglish":"Tojzlov vrh","Lat":"46.6046613","Lon":"15.559882","Category":"peak","Elevation":null},{"OpenStreetMapId":"288522986","Name":"Veliki vrh","NameNative":"Veliki vrh","NameEnglish":"Veliki vrh","Lat":"46.443306","Lon":"15.448188","Category":"peak","Elevation":null},{"OpenStreetMapId":"289088787","Name":"Mišja Šoga","NameNative":"Mišja Šoga","NameEnglish":"Mišja Šoga","Lat":"45.5819929","Lon":"13.950027","Category":"peak","Elevation":null},{"OpenStreetMapId":"289307318","Name":"Cippo Comici","NameNative":"Cippo Comici","NameEnglish":"Cippo Comici","Lat":"45.6155387","Lon":"13.8766876","Category":"peak","Elevation":null},{"OpenStreetMapId":"290255724","Name":"Slap na Tržiški Bistrici","NameNative":"Slap na Tržiški Bistrici","NameEnglish":"Waterfall on Tržiška Bistrica","Lat":"46.3682694","Lon":"14.3186398","Category":"waterfall","Elevation":null},{"OpenStreetMapId":"291038825","Name":"Brinjski hrib (Koščakov hrib)","NameNative":"Brinjski hrib (Koščakov hrib)","NameEnglish":"Brinjski hrib (Koščakov hrib)","Lat":"45.962441","Lon":"14.6538977","Category":"peak","Elevation":null},{"OpenStreetMapId":"292263287","Name":"Skuta","NameNative":"Skuta","NameEnglish":"Skuta","Lat":"46.3632574","Lon":"14.5577388","Category":"peak","Elevation":null},{"OpenStreetMapId":"292862349","Name":"Šmarjetna gora","NameNative":"Šmarjetna gora","NameEnglish":"Šmarjetna gora","Lat":"46.2434907","Lon":"14.3368949","Category":"peak","Elevation":null},{"OpenStreetMapId":"292965142","Name":"Veliki Šumik","NameNative":"Veliki Šumik","NameEnglish":"Veliki Šumik","Lat":"46.482772","Lon":"15.4528745","Category":"waterfall","Elevation":null},{"OpenStreetMapId":"301397629","Name":"Grad Snežnik","NameNative":"Grad Snežnik","NameEnglish":"Castle Snežnik","Lat":"45.6826854","Lon":"14.469163","Category":"castle","Elevation":null},{"OpenStreetMapId":"304095171","Name":"Tosc","NameNative":"Tosc","NameEnglish":"Tosc","Lat":"46.3567226","Lon":"13.8683704","Category":"peak","Elevation":null},{"OpenStreetMapId":"304570383","Name":"Hom","NameNative":"Hom","NameEnglish":"Hom","Lat":"46.2190893","Lon":"15.1258111","Category":"peak","Elevation":null},{"OpenStreetMapId":"305938089","Name":"Sveta gora","NameNative":"Sveta gora","NameEnglish":"Sveta gora","Lat":"45.9990025","Lon":"13.6557097","Category":"peak","Elevation":null},{"OpenStreetMapId":"309849819","Name":"Golič","NameNative":"Golič","NameEnglish":"Golič","Lat":"45.4915581","Lon":"13.9714305","Category":"peak","Elevation":null},{"OpenStreetMapId":"311147666","Name":"II. Martuljški slap","NameNative":"II. Martuljški slap","NameEnglish":"II. Martuljški slap","Lat":"46.4608241","Lon":"13.8384943","Category":"waterfall","Elevation":null},{"OpenStreetMapId":"311147671","Name":"I. Martuljški slap","NameNative":"I. Martuljški slap","NameEnglish":"I. Martuljški slap","Lat":"46.4724543","Lon":"13.8286129","Category":"waterfall","Elevation":null},{"OpenStreetMapId":"313383860","Name":"Mala kopa","NameNative":"Mala kopa","NameEnglish":"Mala kopa","Lat":"46.513576","Lon":"15.188384","Category":"peak","Elevation":null},{"OpenStreetMapId":"316035095","Name":"Piramida","NameNative":"Piramida","NameEnglish":"Piramida","Lat":"46.5681043","Lon":"15.6524003","Category":"peak","Elevation":null},{"OpenStreetMapId":"318433252","Name":"Brestrniški vrh","NameNative":"Brestrniški vrh","NameEnglish":"Brestrniški vrh","Lat":"46.5758246","Lon":"15.5948806","Category":"peak","Elevation":null},{"OpenStreetMapId":"331986061","Name":"Srednji vrh","NameNative":"Srednji vrh","NameEnglish":"Srednji vrh","Lat":"45.5481958","Lon":"14.3119928","Category":"peak","Elevation":null},{"OpenStreetMapId":"331986074","Name":"Sopil","NameNative":"Sopil","NameEnglish":"Sopil","Lat":"45.550503","Lon":"14.306792","Category":"peak","Elevation":null},{"OpenStreetMapId":"333988903","Name":"Mali Kras","NameNative":"Mali Kras","NameEnglish":"Mali Kras","Lat":"45.6085918","Lon":"13.8691162","Category":"peak","Elevation":null},{"OpenStreetMapId":"333989266","Name":"Kokoš / Monte Cocusso","NameNative":"Kokoš / Monte Cocusso","NameEnglish":"Kokoš / Monte Cocusso","Lat":"45.6450241","Lon":"13.89305","Category":"peak","Elevation":null},{"OpenStreetMapId":"333991889","Name":"Veliko Gradišče","NameNative":"Veliko Gradišče","NameEnglish":"Veliko Gradišče","Lat":"45.6400993","Lon":"13.9285948","Category":"peak","Elevation":null},{"OpenStreetMapId":"333992337","Name":"Golič","NameNative":"Golič","NameEnglish":"Golič","Lat":"45.6309335","Lon":"13.9181381","Category":"peak","Elevation":null},{"OpenStreetMapId":"344591473","Name":"Hühnerkogel / Košenjak","NameNative":"Hühnerkogel / Košenjak","NameEnglish":"Hühnerkogel / Košenjak","Lat":"46.6451711","Lon":"15.0300703","Category":"peak","Elevation":null},{"OpenStreetMapId":"344591611","Name":"Jantschkifels","NameNative":"Jantschkifels","NameEnglish":"Jantschkifels","Lat":"46.651854","Lon":"15.0631276","Category":"peak","Elevation":null},{"OpenStreetMapId":"346238420","Name":"Medvižica","NameNative":"Medvižica","NameEnglish":"Medvižica","Lat":"45.4953085","Lon":"14.0634735","Category":"peak","Elevation":null},{"OpenStreetMapId":"346239055","Name":"Razsušica (Glavičorka)","NameNative":"Razsušica (Glavičorka)","NameEnglish":"Razsušica (Glavičorka)","Lat":"45.4938559","Lon":"14.0592439","Category":"peak","Elevation":null},{"OpenStreetMapId":"348383098","Name":null,"NameNative":null,"NameEnglish":null,"Lat":"46.4266564","Lon":"15.5237567","Category":"peak","Elevation":null},{"OpenStreetMapId":"357387816","Name":null,"NameNative":null,"NameEnglish":null,"Lat":"46.5238894","Lon":"15.6178046","Category":"peak","Elevation":null},{"OpenStreetMapId":"360772795","Name":null,"NameNative":null,"NameEnglish":null,"Lat":"46.5745382","Lon":"15.5981561","Category":"peak","Elevation":null},{"OpenStreetMapId":"363301055","Name":"Veliko Špičje","NameNative":"Veliko Špičje","NameEnglish":"Veliko Špičje","Lat":"46.3439268","Lon":"13.7668899","Category":"peak","Elevation":null},{"OpenStreetMapId":"363425957","Name":"Rudnica","NameNative":"Rudnica","NameEnglish":"Rudnica","Lat":"46.2855721","Lon":"13.920346","Category":"peak","Elevation":null},{"OpenStreetMapId":"363608488","Name":"Kanjavec","NameNative":"Kanjavec","NameEnglish":"Kanjavec","Lat":"46.3601429","Lon":"13.8097769","Category":"peak","Elevation":null},{"OpenStreetMapId":"365740014","Name":"Grad Otočec","NameNative":"Grad Otočec","NameEnglish":"Grad Otočec","Lat":"45.8381283","Lon":"15.2347272","Category":"castle","Elevation":null},{"OpenStreetMapId":"370057512","Name":"Planina nad Vrhniko","NameNative":"Planina nad Vrhniko","NameEnglish":"Planina nad Vrhniko","Lat":"45.9709163","Lon":"14.250447","Category":"peak","Elevation":null},{"OpenStreetMapId":"370408909","Name":"Mazovnik","NameNative":"Mazovnik","NameEnglish":"Mazovnik","Lat":"46.0299114","Lon":"14.5553408","Category":"peak","Elevation":null},{"OpenStreetMapId":"370417615","Name":"Črni hrib","NameNative":"Črni hrib","NameEnglish":"Črni hrib","Lat":"46.0326847","Lon":"14.5504526","Category":"peak","Elevation":null},{"OpenStreetMapId":"370417617","Name":"Hruševski hrib","NameNative":"Hruševski hrib","NameEnglish":"Hruševski hrib","Lat":"46.0385664","Lon":"14.546418","Category":"peak","Elevation":null},{"OpenStreetMapId":"381869107","Name":"Slavnik","NameNative":"Slavnik","NameEnglish":"Slavnik","Lat":"45.5338932","Lon":"13.9759258","Category":"peak","Elevation":null},{"OpenStreetMapId":"385997069","Name":"Janžev vrh","NameNative":"Janžev vrh","NameEnglish":"Janžev vrh","Lat":"46.5688452","Lon":"15.3041385","Category":"peak","Elevation":null},{"OpenStreetMapId":"403571930","Name":"Monte Urazza","NameNative":"Monte Urazza","NameEnglish":"Monte Urazza","Lat":"46.3262205","Lon":"13.3998203","Category":"peak","Elevation":null},{"OpenStreetMapId":"410278923","Name":"Mali Črni vrh","NameNative":"Mali Črni vrh","NameEnglish":"Mali Črni vrh","Lat":"46.4959124","Lon":"15.2539078","Category":"peak","Elevation":null},{"OpenStreetMapId":"410992692","Name":"Golovec","NameNative":"Golovec","NameEnglish":"Golovec","Lat":"46.0347048","Lon":"14.5356862","Category":"peak","Elevation":null},{"OpenStreetMapId":"419854769","Name":"Jezerski vrh","NameNative":"Jezerski vrh","NameEnglish":"Jezerski vrh","Lat":"46.4938123","Lon":"15.2644016","Category":"peak","Elevation":null},{"OpenStreetMapId":"420481528","Name":"Mali Snežnik","NameNative":"Mali Snežnik","NameEnglish":"Mali Snežnik","Lat":"45.5897843","Lon":"14.4365676","Category":"peak","Elevation":null},{"OpenStreetMapId":"421008446","Name":"Peč / Ofen / Monte Forno","NameNative":"Peč / Ofen / Monte Forno","NameEnglish":"Peč / Ofen / Monte Forno","Lat":"46.5229856","Lon":"13.7140622","Category":"peak","Elevation":null},{"OpenStreetMapId":"429966623","Name":"Kremžarjev vrh","NameNative":"Kremžarjev vrh","NameEnglish":"Kremžarjev vrh","Lat":"46.5296705","Lon":"15.1341833","Category":"peak","Elevation":null},{"OpenStreetMapId":"441523789","Name":"Veliki Razbor","NameNative":"Veliki Razbor","NameEnglish":"Veliki Razbor","Lat":"45.5390897","Lon":"14.3798301","Category":"peak","Elevation":null},{"OpenStreetMapId":"446383193","Name":"Korada","NameNative":"Korada","NameEnglish":"Korada","Lat":"46.064936","Lon":"13.5606372","Category":"peak","Elevation":null},{"OpenStreetMapId":"448616142","Name":"Majcnov hrib","NameNative":"Majcnov hrib","NameEnglish":"Majcnov hrib","Lat":"46.0874872","Lon":"14.9933204","Category":"peak","Elevation":null},{"OpenStreetMapId":"448827328","Name":"Grmada","NameNative":"Grmada","NameEnglish":"Grmada","Lat":"45.8381672","Lon":"14.2396355","Category":"peak","Elevation":null},{"OpenStreetMapId":"449773771","Name":"Kal","NameNative":"Kal","NameEnglish":"Kal","Lat":"46.3032145","Lon":"13.6188138","Category":"peak","Elevation":null},{"OpenStreetMapId":"458773559","Name":"Levi Skočniki","NameNative":"Levi Skočniki","NameEnglish":"Levi Skočniki","Lat":"46.4630419","Lon":"13.8614011","Category":"waterfall","Elevation":null},{"OpenStreetMapId":"459479566","Name":"Bistriški šum","NameNative":"Bistriški šum","NameEnglish":"Bistriški šum","Lat":"46.4289833","Lon":"15.5262579","Category":"waterfall","Elevation":null},{"OpenStreetMapId":"459507745","Name":"Resevna","NameNative":"Resevna","NameEnglish":"Resevna","Lat":"46.193089","Lon":"15.3680283","Category":"peak","Elevation":null},{"OpenStreetMapId":"459739391","Name":"Turska gora","NameNative":"Turska gora","NameEnglish":"Turska gora","Lat":"46.3602964","Lon":"14.577207","Category":"peak","Elevation":null},{"OpenStreetMapId":"459740371","Name":"Brana","NameNative":"Brana","NameEnglish":"Brana","Lat":"46.3548859","Lon":"14.5875496","Category":"peak","Elevation":null},{"OpenStreetMapId":"460416044","Name":"Turn","NameNative":"Turn","NameEnglish":"Turn","Lat":"46.3391119","Lon":"14.0363539","Category":"peak","Elevation":null},{"OpenStreetMapId":"464842405","Name":"Janče","NameNative":"Janče","NameEnglish":"Janče","Lat":"46.0522785","Lon":"14.7106125","Category":"peak","Elevation":null},{"OpenStreetMapId":"469945444","Name":"Sršenov vrh","NameNative":"Sršenov vrh","NameEnglish":"Sršenov vrh","Lat":"46.6195197","Lon":"15.3724985","Category":"peak","Elevation":null},{"OpenStreetMapId":"471232435","Name":"Vršič","NameNative":"Vršič","NameEnglish":"Vršič","Lat":"46.4340698","Lon":"13.7465664","Category":"peak","Elevation":null},{"OpenStreetMapId":"471298421","Name":"Križ","NameNative":"Križ","NameEnglish":"Križ","Lat":"46.4100787","Lon":"13.8111513","Category":"peak","Elevation":null},{"OpenStreetMapId":"471529350","Name":"Bovški Gamsovec","NameNative":"Bovški Gamsovec","NameEnglish":"Bovški Gamsovec","Lat":"46.3982169","Lon":"13.8126688","Category":"peak","Elevation":null},{"OpenStreetMapId":"471603733","Name":"Malo Špičje","NameNative":"Malo Špičje","NameEnglish":"Malo Špičje","Lat":"46.3517941","Lon":"13.7831702","Category":"peak","Elevation":null},{"OpenStreetMapId":"471603756","Name":null,"NameNative":null,"NameEnglish":null,"Lat":"46.3486446","Lon":"13.7793177","Category":"peak","Elevation":null},{"OpenStreetMapId":"471603763","Name":null,"NameNative":null,"NameEnglish":null,"Lat":"46.3471392","Lon":"13.7770623","Category":"peak","Elevation":null},{"OpenStreetMapId":"471603770","Name":null,"NameNative":null,"NameEnglish":null,"Lat":"46.3462285","Lon":"13.772448","Category":"peak","Elevation":null},{"OpenStreetMapId":"471603772","Name":null,"NameNative":null,"NameEnglish":null,"Lat":"46.3461256","Lon":"13.7710003","Category":"peak","Elevation":null},{"OpenStreetMapId":"471631470","Name":null,"NameNative":null,"NameEnglish":null,"Lat":"46.3964152","Lon":"14.4206623","Category":"peak","Elevation":null},{"OpenStreetMapId":"471631473","Name":"Stegovnik","NameNative":"Stegovnik","NameEnglish":"Stegovnik","Lat":"46.3954402","Lon":"14.4199623","Category":"peak","Elevation":null},{"OpenStreetMapId":"472502272","Name":"Ojstrica","NameNative":"Ojstrica","NameEnglish":"Ojstrica","Lat":"46.3596329","Lon":"14.0784584","Category":"peak","Elevation":null},{"OpenStreetMapId":"472502299","Name":"Velika Osojnica","NameNative":"Velika Osojnica","NameEnglish":"Velika Osojnica","Lat":"46.3570961","Lon":"14.0746376","Category":"peak","Elevation":null},{"OpenStreetMapId":"473152397","Name":"Svitan","NameNative":"Svitan","NameEnglish":"Svitan","Lat":"46.4553842","Lon":"15.3729662","Category":"waterfall","Elevation":null},{"OpenStreetMapId":"473805542","Name":"Orlek","NameNative":"Orlek","NameEnglish":"Orlek","Lat":"46.1507778","Lon":"15.014886","Category":"peak","Elevation":null},{"OpenStreetMapId":"474842512","Name":"Monte Poclabuz / Na Gradu","NameNative":"Monte Poclabuz / Na Gradu","NameEnglish":"Monte Poclabuz / Na Gradu","Lat":"46.1836393","Lon":"13.6594926","Category":"peak","Elevation":null},{"OpenStreetMapId":"474842751","Name":"Monte Nachnoi / Nagnoj","NameNative":"Monte Nachnoi / Nagnoj","NameEnglish":"Monte Nachnoi / Nagnoj","Lat":"46.1917912","Lon":"13.6336132","Category":"peak","Elevation":null},{"OpenStreetMapId":"474844098","Name":"Matajur","NameNative":"Matajur","NameEnglish":"Matajur","Lat":"46.2121701","Lon":"13.5294695","Category":"peak","Elevation":null},{"OpenStreetMapId":"474846899","Name":"Monte Guarda / Skutnik","NameNative":"Monte Guarda / Skutnik","NameEnglish":"Monte Guarda / Skutnik","Lat":"46.3223215","Lon":"13.4389903","Category":"peak","Elevation":null},{"OpenStreetMapId":"474849673","Name":"Mangart","NameNative":"Mangart","NameEnglish":"Mangart","Lat":"46.4394593","Lon":"13.6546459","Category":"peak","Elevation":null},{"OpenStreetMapId":"474853269","Name":"Steinberg / Kamnati vrh","NameNative":"Steinberg / Kamnati vrh","NameEnglish":"Steinberg / Kamnati vrh","Lat":"46.5176023","Lon":"13.7763634","Category":"peak","Elevation":null},{"OpenStreetMapId":"474853716","Name":"Woschza / Vošca","NameNative":"Woschza / Vošca","NameEnglish":"Woschza / Vošca","Lat":"46.5101636","Lon":"13.8180339","Category":"peak","Elevation":null},{"OpenStreetMapId":"474854065","Name":"Ojstri vrh","NameNative":"Ojstri vrh","NameEnglish":"Ojstri vrh","Lat":"46.5192053","Lon":"13.8714386","Category":"peak","Elevation":null},{"OpenStreetMapId":"474855258","Name":"Mittagskogel / Kepa","NameNative":"Mittagskogel / Kepa","NameEnglish":"Mittagskogel / Kepa","Lat":"46.5073609","Lon":"13.9525201","Category":"peak","Elevation":null},{"OpenStreetMapId":"474857281","Name":"Potoški stol","NameNative":"Potoški stol","NameEnglish":"Potoški stol","Lat":"46.4367766","Lon":"14.1534003","Category":"peak","Elevation":null},{"OpenStreetMapId":"474857405","Name":"Stol","NameNative":"Stol","NameEnglish":"Stol","Lat":"46.433999","Lon":"14.1739772","Category":"peak","Elevation":null},{"OpenStreetMapId":"474857453","Name":"Krkotnik","NameNative":"Krkotnik","NameEnglish":"Krkotnik","Lat":"46.436718","Lon":"14.1785418","Category":"peak","Elevation":null},{"OpenStreetMapId":"474857460","Name":"Klagenfurter Spitze / Celovška špica","NameNative":"Klagenfurter Spitze / Celovška špica","NameEnglish":"Klagenfurter Spitze / Celovška špica","Lat":"46.4379947","Lon":"14.1803625","Category":"peak","Elevation":null},{"OpenStreetMapId":"474857480","Name":"Jelenčka/Edelweißspitze","NameNative":"Jelenčka/Edelweißspitze","NameEnglish":"Jelenčka/Edelweißspitze","Lat":"46.4391124","Lon":"14.1849741","Category":"peak","Elevation":null},{"OpenStreetMapId":"474858000","Name":"Wertatscha / Vrtača","NameNative":"Wertatscha / Vrtača","NameEnglish":"Wertatscha / Vrtača","Lat":"46.4399488","Lon":"14.2125796","Category":"peak","Elevation":null},{"OpenStreetMapId":"474858073","Name":"Zelenjak","NameNative":"Zelenjak","NameEnglish":"Zelenjak","Lat":"46.4430107","Lon":"14.2148103","Category":"peak","Elevation":null},{"OpenStreetMapId":"474858147","Name":"Palec/Selenitza","NameNative":"Palec/Selenitza","NameEnglish":"Palec/Selenitza","Lat":"46.443241","Lon":"14.219293","Category":"peak","Elevation":null},{"OpenStreetMapId":"474858905","Name":"Košutica / Loibler Baba","NameNative":"Košutica / Loibler Baba","NameEnglish":"Košutica / Loibler Baba","Lat":"46.4388195","Lon":"14.2992343","Category":"peak","Elevation":null},{"OpenStreetMapId":"474859002","Name":"Kofce gora / Hüttenberg","NameNative":"Kofce gora / Hüttenberg","NameEnglish":"Kofce gora / Hüttenberg","Lat":"46.4311566","Lon":"14.3273675","Category":"peak","Elevation":null},{"OpenStreetMapId":"474859300","Name":"Mala Košuta","NameNative":"Mala Košuta","NameEnglish":"Mala Košuta","Lat":"46.4429452","Lon":"14.4383397","Category":"peak","Elevation":null},{"OpenStreetMapId":"474859455","Name":"Petschounik","NameNative":"Petschounik","NameEnglish":"Petschounik","Lat":"46.4238209","Lon":"14.4418315","Category":"peak","Elevation":null},{"OpenStreetMapId":"474860432","Name":"Velika Baba","NameNative":"Velika Baba","NameEnglish":"Velika Baba","Lat":"46.3793731","Lon":"14.5559588","Category":"peak","Elevation":null},{"OpenStreetMapId":"474860640","Name":"Matkova krnica","NameNative":"Matkova krnica","NameEnglish":"Matkova krnica","Lat":"46.3831765","Lon":"14.5785676","Category":"peak","Elevation":null},{"OpenStreetMapId":"474861282","Name":"Sadonikhöhe","NameNative":"Sadonikhöhe","NameEnglish":"Sadonikhöhe","Lat":"46.4368202","Lon":"14.5959725","Category":"peak","Elevation":null},{"OpenStreetMapId":"474882790","Name":null,"NameNative":null,"NameEnglish":null,"Lat":"46.8690592","Lon":"16.1138866","Category":"peak","Elevation":null},{"OpenStreetMapId":"484226651","Name":"Veliki Kozjak","NameNative":"Veliki Kozjak","NameEnglish":"Veliki Kozjak","Lat":"46.261939","Lon":"13.5926091","Category":"waterfall","Elevation":null},{"OpenStreetMapId":"495248541","Name":"Lukov slap","NameNative":"Lukov slap","NameEnglish":"Lukov slap","Lat":"46.4582631","Lon":"15.3091828","Category":"waterfall","Elevation":null},{"OpenStreetMapId":"495961407","Name":"Mrzovec","NameNative":"Mrzovec","NameEnglish":"Mrzovec","Lat":"45.9782759","Lon":"13.805673","Category":"peak","Elevation":null},{"OpenStreetMapId":"495961408","Name":"Črni vrh","NameNative":"Črni vrh","NameEnglish":"Črni vrh","Lat":"45.9644061","Lon":"13.788256","Category":"peak","Elevation":null},{"OpenStreetMapId":"495961409","Name":"Jancerijski vrh","NameNative":"Jancerijski vrh","NameEnglish":"Jancerijski vrh","Lat":"45.953061","Lon":"13.7814909","Category":"peak","Elevation":null},{"OpenStreetMapId":"495961411","Name":"Strgarika","NameNative":"Strgarika","NameEnglish":"Strgarika","Lat":"45.9904536","Lon":"13.7889574","Category":"peak","Elevation":null},{"OpenStreetMapId":"497315092","Name":"Svinski vrh","NameNative":"Svinski vrh","NameEnglish":"Svinski vrh","Lat":"46.1854573","Lon":"15.0644289","Category":"peak","Elevation":null},{"OpenStreetMapId":"497315093","Name":"Mrzlica","NameNative":"Mrzlica","NameEnglish":"Mrzlica","Lat":"46.1875175","Lon":"15.1074494","Category":"peak","Elevation":null},{"OpenStreetMapId":"517907110","Name":"Stari grad","NameNative":"Stari grad","NameEnglish":"Stari grad","Lat":"45.8503415","Lon":"13.9642137","Category":"castle","Elevation":null},{"OpenStreetMapId":"519173655","Name":"Viševnik","NameNative":"Viševnik","NameEnglish":"Viševnik","Lat":"46.3589823","Lon":"13.8982404","Category":"peak","Elevation":null},{"OpenStreetMapId":"528854648","Name":"Weinasch / Vajnež","NameNative":"Weinasch / Vajnež","NameEnglish":"Weinasch / Vajnež","Lat":"46.4430719","Lon":"14.1512094","Category":"peak","Elevation":null},{"OpenStreetMapId":"549992288","Name":"Kozlova gora","NameNative":"Kozlova gora","NameEnglish":"Kozlova gora","Lat":"46.0932036","Lon":"15.0450002","Category":"peak","Elevation":null},{"OpenStreetMapId":"549992291","Name":"Pejca","NameNative":"Pejca","NameEnglish":"Pejca","Lat":"46.102406","Lon":"15.0347841","Category":"peak","Elevation":null},{"OpenStreetMapId":"556675513","Name":"Forovec","NameNative":"Forovec","NameEnglish":"Forovec","Lat":"46.0940909","Lon":"14.9771843","Category":"peak","Elevation":null},{"OpenStreetMapId":"556675520","Name":"Kumat","NameNative":"Kumat","NameEnglish":"Kumat","Lat":"46.1014422","Lon":"14.9789842","Category":"peak","Elevation":null},{"OpenStreetMapId":"564939190","Name":"Čuk","NameNative":"Čuk","NameEnglish":"Čuk","Lat":"45.5227559","Lon":"13.9917718","Category":"peak","Elevation":null},{"OpenStreetMapId":"568489392","Name":"Gradiška Tura","NameNative":"Gradiška Tura","NameEnglish":"Gradiška Tura","Lat":"45.8292754","Lon":"13.9796416","Category":"peak","Elevation":null},{"OpenStreetMapId":"568489587","Name":null,"NameNative":null,"NameEnglish":null,"Lat":"45.8295589","Lon":"13.9807807","Category":"peak","Elevation":null},{"OpenStreetMapId":"568521163","Name":"Kalski hrib","NameNative":"Kalski hrib","NameEnglish":"Kalski hrib","Lat":"46.1762038","Lon":"15.109356","Category":"peak","Elevation":null},{"OpenStreetMapId":"574261791","Name":"Plaz","NameNative":"Plaz","NameEnglish":"Plaz","Lat":"45.8423875","Lon":"13.9722029","Category":"peak","Elevation":null},{"OpenStreetMapId":"581869091","Name":"Kosmatitza","NameNative":"Kosmatitza","NameEnglish":"Kosmatitza","Lat":"46.4598249","Lon":"14.1977792","Category":"peak","Elevation":null},{"OpenStreetMapId":"583241016","Name":"Monte Lanaro / Volnik","NameNative":"Monte Lanaro / Volnik","NameEnglish":"Monte Lanaro / Volnik","Lat":"45.7470244","Lon":"13.7824065","Category":"peak","Elevation":null},{"OpenStreetMapId":"587644226","Name":"Osredek","NameNative":"Osredek","NameEnglish":"Osredek","Lat":"46.1480481","Lon":"14.8980743","Category":"peak","Elevation":null},{"OpenStreetMapId":"587914902","Name":"Javor","NameNative":"Javor","NameEnglish":"Javor","Lat":"46.1826537","Lon":"15.0164885","Category":"peak","Elevation":null},{"OpenStreetMapId":"588850280","Name":"Kriški grad","NameNative":"Kriški grad","NameEnglish":"Kriški grad","Lat":"46.2029809","Lon":"14.5678175","Category":"castle","Elevation":null},{"OpenStreetMapId":"588982869","Name":"Gamberk","NameNative":"Gamberk","NameEnglish":"Gamberk","Lat":"46.1621431","Lon":"14.967648","Category":"castle","Elevation":null},{"OpenStreetMapId":"588982886","Name":"Goli hrib","NameNative":"Goli hrib","NameEnglish":"Goli hrib","Lat":"46.1668116","Lon":"14.9744709","Category":"peak","Elevation":null},{"OpenStreetMapId":"588982891","Name":"Sleme","NameNative":"Sleme","NameEnglish":"Sleme","Lat":"46.1649658","Lon":"14.9844235","Category":"peak","Elevation":null},{"OpenStreetMapId":"588982915","Name":"Jamč","NameNative":"Jamč","NameEnglish":"Jamč","Lat":"46.1666016","Lon":"15.0215089","Category":"peak","Elevation":null},{"OpenStreetMapId":"588982919","Name":"Partizanski vrh","NameNative":"Partizanski vrh","NameEnglish":"Partizanski vrh","Lat":"46.1773029","Lon":"15.0221744","Category":"peak","Elevation":null},{"OpenStreetMapId":"588982927","Name":"Kisovec","NameNative":"Kisovec","NameEnglish":"Kisovec","Lat":"46.1909018","Lon":"15.0023153","Category":"peak","Elevation":null},{"OpenStreetMapId":"588982940","Name":"Tabor","NameNative":"Tabor","NameEnglish":"Tabor","Lat":"46.1641225","Lon":"15.0316142","Category":"peak","Elevation":null},{"OpenStreetMapId":"588982943","Name":"Klek","NameNative":"Klek","NameEnglish":"Klek","Lat":"46.1611702","Lon":"15.0419643","Category":"peak","Elevation":null},{"OpenStreetMapId":"590611024","Name":"Debeli vrh","NameNative":"Debeli vrh","NameEnglish":"Debeli vrh","Lat":"45.7951064","Lon":"14.0491048","Category":"peak","Elevation":null},{"OpenStreetMapId":"596421717","Name":"Kopitnik","NameNative":"Kopitnik","NameEnglish":"Kopitnik","Lat":"46.1103524","Lon":"15.1788191","Category":"peak","Elevation":null},{"OpenStreetMapId":"596421718","Name":"Stražnik","NameNative":"Stražnik","NameEnglish":"Stražnik","Lat":"46.1107835","Lon":"15.2019382","Category":"peak","Elevation":null},{"OpenStreetMapId":"597442287","Name":"Orljek","NameNative":"Orljek","NameEnglish":"Orljek","Lat":"46.0765226","Lon":"15.0005869","Category":"peak","Elevation":null},{"OpenStreetMapId":"598214664","Name":"Mala Mojstrovka","NameNative":"Mala Mojstrovka","NameEnglish":"Mala Mojstrovka","Lat":"46.4374004","Lon":"13.7311241","Category":"peak","Elevation":null},{"OpenStreetMapId":"599673741","Name":"Pišečki grad","NameNative":"Pišečki grad","NameEnglish":"Pišečki grad","Lat":"46.0063967","Lon":"15.6372814","Category":"castle","Elevation":null},{"OpenStreetMapId":"601582025","Name":"Stari grad","NameNative":"Stari grad","NameEnglish":"Stari grad","Lat":"46.2239492","Lon":"14.6168184","Category":"peak","Elevation":null},{"OpenStreetMapId":"601583165","Name":"Slap Orličje (Orglice)","NameNative":"Slap Orličje (Orglice)","NameEnglish":"Slap Orličje (Orglice)","Lat":"46.3332711","Lon":"14.6187529","Category":"waterfall","Elevation":null},{"OpenStreetMapId":"602501362","Name":null,"NameNative":null,"NameEnglish":null,"Lat":"45.8857704","Lon":"15.5933777","Category":"peak","Elevation":null},{"OpenStreetMapId":"602943651","Name":"Mala Pleševica","NameNative":"Mala Pleševica","NameEnglish":"Mala Pleševica","Lat":"45.5066288","Lon":"14.0345454","Category":"peak","Elevation":null},{"OpenStreetMapId":"603102052","Name":"Hrib","NameNative":"Hrib","NameEnglish":"Hrib","Lat":"46.1917079","Lon":"14.9929282","Category":"peak","Elevation":null},{"OpenStreetMapId":"603114056","Name":"Krvavica","NameNative":"Krvavica","NameEnglish":"Krvavica","Lat":"46.2007864","Lon":"14.9930425","Category":"peak","Elevation":null},{"OpenStreetMapId":"603114057","Name":"Brložen","NameNative":"Brložen","NameEnglish":"Brložen","Lat":"46.2031844","Lon":"15.0035679","Category":"peak","Elevation":null},{"OpenStreetMapId":"603875752","Name":"Gunetova glava","NameNative":"Gunetova glava","NameEnglish":"Gunetova glava","Lat":"46.1931293","Lon":"14.9840006","Category":"peak","Elevation":null},{"OpenStreetMapId":"605002109","Name":"Grad Zaprice","NameNative":"Grad Zaprice","NameEnglish":"Grad Zaprice","Lat":"46.2231009","Lon":"14.6056035","Category":"castle","Elevation":null},{"OpenStreetMapId":"610908769","Name":"Velika špica","NameNative":"Velika špica","NameEnglish":"Velika špica","Lat":"46.2195678","Lon":"14.6224959","Category":"peak","Elevation":null},{"OpenStreetMapId":"611337562","Name":"Gorica","NameNative":"Gorica","NameEnglish":"Gorica","Lat":"46.1370827","Lon":"14.9988927","Category":"peak","Elevation":null},{"OpenStreetMapId":"618774460","Name":"Slivna","NameNative":"Slivna","NameEnglish":"Slivna","Lat":"46.1205689","Lon":"14.7964735","Category":"peak","Elevation":null},{"OpenStreetMapId":"618777662","Name":"Sitarjevec","NameNative":"Sitarjevec","NameEnglish":"Sitarjevec","Lat":"46.0523535","Lon":"14.8261015","Category":"peak","Elevation":null},{"OpenStreetMapId":"618840827","Name":"Konj","NameNative":"Konj","NameEnglish":"Konj","Lat":"46.330938","Lon":"14.637555","Category":"peak","Elevation":null},{"OpenStreetMapId":"619485100","Name":"Bukova gora","NameNative":"Bukova gora","NameEnglish":"Bukova gora","Lat":"46.1316514","Lon":"15.0420122","Category":"peak","Elevation":null},{"OpenStreetMapId":"632726932","Name":"Radojč","NameNative":"Radojč","NameEnglish":"Radojč","Lat":"46.3596342","Lon":"15.172468","Category":"peak","Elevation":null},{"OpenStreetMapId":"632739054","Name":"Ramšakov vrh","NameNative":"Ramšakov vrh","NameEnglish":"Ramšakov vrh","Lat":"46.3593277","Lon":"15.1897208","Category":"peak","Elevation":null},{"OpenStreetMapId":"633505533","Name":null,"NameNative":null,"NameEnglish":null,"Lat":"46.6021741","Lon":"15.5734668","Category":"peak","Elevation":null},{"OpenStreetMapId":"634561893","Name":"Vrh Staneta Kosca (Rašica)","NameNative":"Vrh Staneta Kosca (Rašica)","NameEnglish":"Vrh Staneta Kosca (Rašica)","Lat":"46.1397405","Lon":"14.5121527","Category":"peak","Elevation":null},{"OpenStreetMapId":"650934464","Name":"Vernski slap","NameNative":"Vernski slap","NameEnglish":"Vernski slap","Lat":"46.4850025","Lon":"15.4535964","Category":"waterfall","Elevation":null},{"OpenStreetMapId":"650934468","Name":"Mali Šumik","NameNative":"Mali Šumik","NameEnglish":"Mali Šumik","Lat":"46.4862551","Lon":"15.4535638","Category":"waterfall","Elevation":null},{"OpenStreetMapId":"661594998","Name":"Supt","NameNative":"Supt","NameEnglish":"Supt","Lat":"45.6162694","Lon":"13.8798197","Category":"waterfall","Elevation":null},{"OpenStreetMapId":"661595173","Name":"slap pod mostom","NameNative":"slap pod mostom","NameEnglish":"slap pod mostom","Lat":"45.5943545","Lon":"13.9265697","Category":"waterfall","Elevation":null},{"OpenStreetMapId":"661657521","Name":"Cascata Vecchio Mulino","NameNative":"Cascata Vecchio Mulino","NameEnglish":"Cascata Vecchio Mulino","Lat":"46.2385643","Lon":"13.3855292","Category":"waterfall","Elevation":null},{"OpenStreetMapId":"662915310","Name":null,"NameNative":null,"NameEnglish":null,"Lat":"46.5831471","Lon":"15.6049758","Category":"peak","Elevation":null},{"OpenStreetMapId":"662915322","Name":"Lucijin breg","NameNative":"Lucijin breg","NameEnglish":"Lucijin breg","Lat":"46.5865121","Lon":"15.6051489","Category":"peak","Elevation":null},{"OpenStreetMapId":"677080093","Name":"Vištov vrh","NameNative":"Vištov vrh","NameEnglish":"Vištov vrh","Lat":"46.1252192","Lon":"15.0771278","Category":"peak","Elevation":null},{"OpenStreetMapId":"677080138","Name":"Špicberg","NameNative":"Špicberg","NameEnglish":"Špicberg","Lat":"46.1324316","Lon":"15.0838768","Category":"peak","Elevation":null},{"OpenStreetMapId":"683564823","Name":null,"NameNative":null,"NameEnglish":null,"Lat":"46.5138299","Lon":"15.5034222","Category":"waterfall","Elevation":null},{"OpenStreetMapId":"691796063","Name":null,"NameNative":null,"NameEnglish":null,"Lat":"46.5471905","Lon":"15.5420748","Category":"peak","Elevation":null},{"OpenStreetMapId":"693227444","Name":"Kranjska reber","NameNative":"Kranjska reber","NameEnglish":"Kranjska reber","Lat":"46.2844458","Lon":"14.7111015","Category":"peak","Elevation":null},{"OpenStreetMapId":"699558617","Name":"Kovk","NameNative":"Kovk","NameEnglish":"Kovk","Lat":"45.8879504","Lon":"13.9690563","Category":"peak","Elevation":null},{"OpenStreetMapId":"706550504","Name":"Ostri vrh","NameNative":"Ostri vrh","NameEnglish":"Ostri vrh","Lat":"46.1562932","Lon":"15.130559","Category":"peak","Elevation":null},{"OpenStreetMapId":"706550681","Name":"Baba","NameNative":"Baba","NameEnglish":"Baba","Lat":"46.1587272","Lon":"15.1439712","Category":"peak","Elevation":null},{"OpenStreetMapId":"710384647","Name":"Govško brdo","NameNative":"Govško brdo","NameEnglish":"Govško brdo","Lat":"46.1600517","Lon":"15.163294","Category":"peak","Elevation":null},{"OpenStreetMapId":"723163401","Name":"Stari grad (Arboretum)","NameNative":"Stari grad (Arboretum)","NameEnglish":"Stari grad (Arboretum)","Lat":"46.1891967","Lon":"14.6132523","Category":"peak","Elevation":null},{"OpenStreetMapId":"727511908","Name":"Šum","NameNative":"Šum","NameEnglish":"Šum","Lat":"46.4007968","Lon":"14.0993183","Category":"waterfall","Elevation":null},{"OpenStreetMapId":"733935124","Name":null,"NameNative":null,"NameEnglish":null,"Lat":"45.5890458","Lon":"13.806146","Category":"waterfall","Elevation":null},{"OpenStreetMapId":"736780254","Name":"Videž","NameNative":"Videž","NameEnglish":"Videž","Lat":"45.6182195","Lon":"13.9276265","Category":"peak","Elevation":null},{"OpenStreetMapId":"737431685","Name":"Polanšček","NameNative":"Polanšček","NameEnglish":"Polanšček","Lat":"45.6230761","Lon":"13.9416559","Category":"peak","Elevation":null},{"OpenStreetMapId":"737694621","Name":"Reber","NameNative":"Reber","NameEnglish":"Reber","Lat":"46.1770109","Lon":"14.8687663","Category":"peak","Elevation":null},{"OpenStreetMapId":"739472716","Name":"Dovška Baba / Frauenkogel","NameNative":"Dovška Baba / Frauenkogel","NameEnglish":"Dovška Baba / Frauenkogel","Lat":"46.4877099","Lon":"13.9940613","Category":"peak","Elevation":null},{"OpenStreetMapId":"746776282","Name":"Križna gora","NameNative":"Križna gora","NameEnglish":"Križna gora","Lat":"45.7418895","Lon":"14.4586233","Category":"peak","Elevation":null},{"OpenStreetMapId":"759521591","Name":"Cuc","NameNative":"Cuc","NameEnglish":"Cuc","Lat":"46.3190927","Lon":"14.7246127","Category":"waterfall","Elevation":null},{"OpenStreetMapId":"759521611","Name":"Riharjevi slapovi","NameNative":"Riharjevi slapovi","NameEnglish":"Riharjevi slapovi","Lat":"46.3225721","Lon":"14.7220649","Category":"waterfall","Elevation":null},{"OpenStreetMapId":"771319761","Name":null,"NameNative":null,"NameEnglish":null,"Lat":"46.5262169","Lon":"15.1856357","Category":"peak","Elevation":null},{"OpenStreetMapId":"771614250","Name":"Velika kopa","NameNative":"Velika kopa","NameEnglish":"Velika kopa","Lat":"46.506693","Lon":"15.198069","Category":"peak","Elevation":null},{"OpenStreetMapId":"777929268","Name":"Ponza di Mezzo / Srednja Ponca","NameNative":"Ponza di Mezzo / Srednja Ponca","NameEnglish":"Ponza di Mezzo / Srednja Ponca","Lat":"46.4567669","Lon":"13.6988144","Category":"peak","Elevation":null},{"OpenStreetMapId":"777929283","Name":"Ponza Grande / Visoka Ponca","NameNative":"Ponza Grande / Visoka Ponca","NameEnglish":"Ponza Grande / Visoka Ponca","Lat":"46.4602182","Lon":"13.6974269","Category":"peak","Elevation":null},{"OpenStreetMapId":"777929314","Name":"Monte Termine / V Koncu špica","NameNative":"Monte Termine / V Koncu špica","NameEnglish":"Monte Termine / V Koncu špica","Lat":"46.4375164","Lon":"13.6840135","Category":"peak","Elevation":null},{"OpenStreetMapId":"777929397","Name":null,"NameNative":null,"NameEnglish":null,"Lat":"46.4473838","Lon":"13.6938182","Category":"peak","Elevation":null},{"OpenStreetMapId":"777929417","Name":"Zadnja Ponca / Ponza di Dietro","NameNative":"Zadnja Ponca / Ponza di Dietro","NameEnglish":"Zadnja Ponca / Ponza di Dietro","Lat":"46.4507182","Lon":"13.694973","Category":"peak","Elevation":null},{"OpenStreetMapId":"777929428","Name":null,"NameNative":null,"NameEnglish":null,"Lat":"46.4548959","Lon":"13.6977101","Category":"peak","Elevation":null},{"OpenStreetMapId":"777929486","Name":"Piccolo Mangart di Coritenza / Koritniški mali Mangrt","NameNative":"Piccolo Mangart di Coritenza / Koritniški mali Mangrt","NameEnglish":"Piccolo Mangart di Coritenza / Koritniški mali Mangrt","Lat":"46.4401868","Lon":"13.6744915","Category":"peak","Elevation":null},{"OpenStreetMapId":"777929568","Name":"Veunza / Vevnica","NameNative":"Veunza / Vevnica","NameEnglish":"Veunza / Vevnica","Lat":"46.4396715","Lon":"13.6856871","Category":"peak","Elevation":null},{"OpenStreetMapId":"778613414","Name":"Grad Prem","NameNative":"Grad Prem","NameEnglish":"Grad Prem","Lat":"45.6052417","Lon":"14.1851755","Category":"castle","Elevation":null},{"OpenStreetMapId":"784221368","Name":"Gradišče (Njivica)","NameNative":"Gradišče (Njivica)","NameEnglish":"Gradišče (Njivica)","Lat":"46.2980481","Lon":"14.6439237","Category":"peak","Elevation":null},{"OpenStreetMapId":"789555351","Name":"Monte Purgessimo","NameNative":"Monte Purgessimo","NameEnglish":"Monte Purgessimo","Lat":"46.1048265","Lon":"13.48648","Category":"peak","Elevation":null},{"OpenStreetMapId":"793023216","Name":"Strelovec","NameNative":"Strelovec","NameEnglish":"Strelovec","Lat":"46.3945038","Lon":"14.6581827","Category":"peak","Elevation":null},{"OpenStreetMapId":"818878279","Name":"Lučki Dedec","NameNative":"Lučki Dedec","NameEnglish":"Lučki Dedec","Lat":"46.3523963","Lon":"14.6377765","Category":"peak","Elevation":null},{"OpenStreetMapId":"818878374","Name":"Deska","NameNative":"Deska","NameEnglish":"Deska","Lat":"46.3453109","Lon":"14.6600003","Category":"peak","Elevation":null},{"OpenStreetMapId":"818878544","Name":"Lastovec","NameNative":"Lastovec","NameEnglish":"Lastovec","Lat":"46.3369248","Lon":"14.6603418","Category":"peak","Elevation":null},{"OpenStreetMapId":"819086707","Name":"Šop","NameNative":"Šop","NameEnglish":"Šop","Lat":"45.8867582","Lon":"14.4202501","Category":"peak","Elevation":null},{"OpenStreetMapId":"826487944","Name":"Mahavšček","NameNative":"Mahavšček","NameEnglish":"Mahavšček","Lat":"46.2773744","Lon":"13.7362383","Category":"peak","Elevation":null},{"OpenStreetMapId":"830370157","Name":"Zidovnik","NameNative":"Zidovnik","NameEnglish":"Zidovnik","Lat":"45.7028444","Lon":"13.8880014","Category":"peak","Elevation":null},{"OpenStreetMapId":"847700202","Name":"Planina","NameNative":"Planina","NameEnglish":"Planina","Lat":"45.6121955","Lon":"14.336618","Category":"peak","Elevation":null},{"OpenStreetMapId":"847760038","Name":"Gašperjev hrib","NameNative":"Gašperjev hrib","NameEnglish":"Gašperjev hrib","Lat":"45.5892587","Lon":"14.4728898","Category":"peak","Elevation":null},{"OpenStreetMapId":"852794045","Name":"Lanež","NameNative":"Lanež","NameEnglish":"Lanež","Lat":"46.4186531","Lon":"14.7548217","Category":"peak","Elevation":null},{"OpenStreetMapId":"852799000","Name":"Jelovec","NameNative":"Jelovec","NameEnglish":"Jelovec","Lat":"46.421523","Lon":"14.7615125","Category":"peak","Elevation":null},{"OpenStreetMapId":"861287238","Name":"Hom","NameNative":"Hom","NameEnglish":"Hom","Lat":"46.3954069","Lon":"14.0928945","Category":"peak","Elevation":null},{"OpenStreetMapId":"863675559","Name":"Kurešček","NameNative":"Kurešček","NameEnglish":"Kurešček","Lat":"45.8855865","Lon":"14.559469","Category":"peak","Elevation":null},{"OpenStreetMapId":"889389926","Name":"Pršivec","NameNative":"Pršivec","NameEnglish":"Pršivec","Lat":"46.2973134","Lon":"13.8211548","Category":"peak","Elevation":null},{"OpenStreetMapId":"893423712","Name":"Ulovka","NameNative":"Ulovka","NameEnglish":"Ulovka","Lat":"45.9756798","Lon":"14.2396056","Category":"peak","Elevation":null},{"OpenStreetMapId":"895308487","Name":"Slemenova špica","NameNative":"Slemenova špica","NameEnglish":"Slemenova špica","Lat":"46.4460072","Lon":"13.7264851","Category":"peak","Elevation":null},{"OpenStreetMapId":"901549100","Name":"Zasavska Sveta gora","NameNative":"Zasavska Sveta gora","NameEnglish":"Zasavska Sveta gora","Lat":"46.1285049","Lon":"14.8943719","Category":"peak","Elevation":null},{"OpenStreetMapId":"901549337","Name":"Roviškovec","NameNative":"Roviškovec","NameEnglish":"Roviškovec","Lat":"46.1268409","Lon":"14.9033725","Category":"peak","Elevation":null},{"OpenStreetMapId":"910917208","Name":null,"NameNative":null,"NameEnglish":null,"Lat":"45.6328133","Lon":"15.3088742","Category":"waterfall","Elevation":null},{"OpenStreetMapId":"922742892","Name":"Golika","NameNative":"Golika","NameEnglish":"Golika","Lat":"46.3753447","Lon":"15.4111913","Category":"peak","Elevation":null},{"OpenStreetMapId":"932252481","Name":"Golaš","NameNative":"Golaš","NameEnglish":"Golaš","Lat":"46.220172","Lon":"14.5922121","Category":"peak","Elevation":null},{"OpenStreetMapId":"935804244","Name":"Rinka","NameNative":"Rinka","NameEnglish":"Rinka","Lat":"46.3710696","Lon":"14.5923758","Category":"waterfall","Elevation":null},{"OpenStreetMapId":"963533686","Name":"Bricnik","NameNative":"Bricnik","NameEnglish":"Bricnik","Lat":"46.6358273","Lon":"15.1669107","Category":"peak","Elevation":null},{"OpenStreetMapId":"974105444","Name":"Sv. Danijel","NameNative":"Sv. Danijel","NameEnglish":"Sv. Danijel","Lat":"45.9673031","Lon":"13.7010576","Category":"peak","Elevation":null},{"OpenStreetMapId":"982260879","Name":"Quota 208 Nord / Kucelj","NameNative":"Quota 208 Nord / Kucelj","NameEnglish":"Quota 208 Nord / Kucelj","Lat":"45.841167","Lon":"13.5737711","Category":"peak","Elevation":null},{"OpenStreetMapId":"982260894","Name":"Quota 208 Sud / Varda","NameNative":"Quota 208 Sud / Varda","NameEnglish":"Quota 208 Sud / Varda","Lat":"45.833496","Lon":"13.5766852","Category":"peak","Elevation":null},{"OpenStreetMapId":"996091005","Name":"Monte Orsario / Veliki Medvedjak","NameNative":"Monte Orsario / Veliki Medvedjak","NameEnglish":"Monte Orsario / Veliki Medvedjak","Lat":"45.7146616","Lon":"13.8263519","Category":"peak","Elevation":null},{"OpenStreetMapId":"1015939306","Name":"Grm","NameNative":"Grm","NameEnglish":"Grm","Lat":"45.7951188","Lon":"15.1716595","Category":"castle","Elevation":null},{"OpenStreetMapId":"1068432468","Name":"Luknje","NameNative":"Luknje","NameEnglish":"Luknje","Lat":"46.0424693","Lon":"14.5346864","Category":"peak","Elevation":null},{"OpenStreetMapId":"1069871084","Name":"Iskranjca","NameNative":"Iskranjca","NameEnglish":"Iskranjca","Lat":"46.1174882","Lon":"15.0069627","Category":"peak","Elevation":null},{"OpenStreetMapId":"1126282361","Name":"Limbarska gora","NameNative":"Limbarska gora","NameEnglish":"Limbarska gora","Lat":"46.1609569","Lon":"14.7750443","Category":"peak","Elevation":null},{"OpenStreetMapId":"1139218401","Name":"Gozdnik","NameNative":"Gozdnik","NameEnglish":"Gozdnik","Lat":"46.1924886","Lon":"15.1525976","Category":"peak","Elevation":null},{"OpenStreetMapId":"1153962240","Name":"Meljski hrib","NameNative":"Meljski hrib","NameEnglish":"Meljski hrib","Lat":"46.5619535","Lon":"15.6773803","Category":"peak","Elevation":null},{"OpenStreetMapId":"1163923073","Name":"Bovljek","NameNative":"Bovljek","NameEnglish":"Bovljek","Lat":"45.8519553","Lon":"14.7988663","Category":"peak","Elevation":null},{"OpenStreetMapId":"1165376264","Name":"Monte Sambuco / Bezgonov vrh","NameNative":"Monte Sambuco / Bezgonov vrh","NameEnglish":"Monte Sambuco / Bezgonov vrh","Lat":"45.7982226","Lon":"13.6571099","Category":"peak","Elevation":null},{"OpenStreetMapId":"1177088137","Name":"Glančnik","NameNative":"Glančnik","NameEnglish":"Glančnik","Lat":"46.5682722","Lon":"15.3608874","Category":"peak","Elevation":null},{"OpenStreetMapId":"1177088843","Name":"Hlebov vrh","NameNative":"Hlebov vrh","NameEnglish":"Hlebov vrh","Lat":"46.568593","Lon":"15.3403209","Category":"peak","Elevation":null},{"OpenStreetMapId":"1180835181","Name":"Gura","NameNative":"Gura","NameEnglish":"Gura","Lat":"45.6985165","Lon":"13.9184985","Category":"peak","Elevation":null},{"OpenStreetMapId":"1180835532","Name":"Strmca","NameNative":"Strmca","NameEnglish":"Strmca","Lat":"45.6957888","Lon":"13.9283475","Category":"peak","Elevation":null},{"OpenStreetMapId":"1180836005","Name":"Goli vrh","NameNative":"Goli vrh","NameEnglish":"Goli vrh","Lat":"45.6918812","Lon":"13.9191198","Category":"peak","Elevation":null},{"OpenStreetMapId":"1180836449","Name":"Strmec","NameNative":"Strmec","NameEnglish":"Strmec","Lat":"45.6762942","Lon":"13.9270709","Category":"peak","Elevation":null},{"OpenStreetMapId":"1195751668","Name":"Lamprehtov vrh","NameNative":"Lamprehtov vrh","NameEnglish":"Lamprehtov vrh","Lat":"46.5099022","Lon":"15.4092176","Category":"peak","Elevation":null},{"OpenStreetMapId":"1199010256","Name":"Turn","NameNative":"Turn","NameEnglish":"Turn","Lat":"46.5082031","Lon":"15.3967799","Category":"peak","Elevation":null},{"OpenStreetMapId":"1212124763","Name":"Sveta Gera","NameNative":"Sveta Gera","NameEnglish":"Sveta Gera","Lat":"45.7598005","Lon":"15.3181237","Category":"peak","Elevation":null},{"OpenStreetMapId":"1223465687","Name":"Malič","NameNative":"Malič","NameEnglish":"Malič","Lat":"46.1826639","Lon":"15.2085072","Category":"peak","Elevation":null},{"OpenStreetMapId":"1237577080","Name":"Juričev vrh","NameNative":"Juričev vrh","NameEnglish":"Juričev vrh","Lat":"46.568036","Lon":"15.38406","Category":"peak","Elevation":null},{"OpenStreetMapId":"1237577313","Name":null,"NameNative":null,"NameEnglish":null,"Lat":"46.569529","Lon":"15.387817","Category":"peak","Elevation":null},{"OpenStreetMapId":"1247317326","Name":"Bajdinški slap 1","NameNative":"Bajdinški slap 1","NameEnglish":"Bajdinški slap 1","Lat":"45.8831769","Lon":"14.6092825","Category":"waterfall","Elevation":null},{"OpenStreetMapId":"1260442745","Name":"Sveti Duh","NameNative":"Sveti Duh","NameEnglish":"Sveti Duh","Lat":"45.9223077","Lon":"14.7560084","Category":"peak","Elevation":null},{"OpenStreetMapId":"1264089392","Name":"Mala Peca","NameNative":"Mala Peca","NameEnglish":"Mala Peca","Lat":"46.492296","Lon":"14.791829","Category":"peak","Elevation":null},{"OpenStreetMapId":"1277096610","Name":"Sabotino / Sabotin","NameNative":"Sabotino / Sabotin","NameEnglish":"Sabotino / Sabotin","Lat":"45.9884151","Lon":"13.6347815","Category":"peak","Elevation":null},{"OpenStreetMapId":"1277684018","Name":"San Leonardo / Sveti Lenart","NameNative":"San Leonardo / Sveti Lenart","NameEnglish":"San Leonardo / Sveti Lenart","Lat":"45.7648389","Lon":"13.7223444","Category":"peak","Elevation":null},{"OpenStreetMapId":"1309408820","Name":"Končnikov vrh","NameNative":"Končnikov vrh","NameEnglish":"Končnikov vrh","Lat":"46.504022","Lon":"14.763183","Category":"peak","Elevation":null},{"OpenStreetMapId":"1313910553","Name":"Dleskovec","NameNative":"Dleskovec","NameEnglish":"Dleskovec","Lat":"46.3539111","Lon":"14.6822355","Category":"peak","Elevation":null},{"OpenStreetMapId":"1313910599","Name":"Smrekovec","NameNative":"Smrekovec","NameEnglish":"Smrekovec","Lat":"46.356518","Lon":"14.6995791","Category":"peak","Elevation":null},{"OpenStreetMapId":"1313913429","Name":"Veliki vrh","NameNative":"Veliki vrh","NameEnglish":"Veliki vrh","Lat":"46.3575584","Lon":"14.6693115","Category":"peak","Elevation":null},{"OpenStreetMapId":"1315637335","Name":"Črvov vrh","NameNative":"Črvov vrh","NameEnglish":"Črvov vrh","Lat":"46.1429445","Lon":"13.86496","Category":"peak","Elevation":null},{"OpenStreetMapId":"1324511148","Name":null,"NameNative":null,"NameEnglish":null,"Lat":"46.0822852","Lon":"14.3309703","Category":"peak","Elevation":null},{"OpenStreetMapId":"1329818125","Name":"Slap Žlebine","NameNative":"Slap Žlebine","NameEnglish":"Slap Žlebine","Lat":"45.5964204","Lon":"13.8961346","Category":"waterfall","Elevation":null},{"OpenStreetMapId":"1330003545","Name":"Stari grad Traberg","NameNative":"Stari grad Traberg","NameEnglish":"Stari grad Traberg","Lat":"46.5929178","Lon":"15.0179374","Category":"castle","Elevation":null},{"OpenStreetMapId":"1330277033","Name":"Bevkov vrh","NameNative":"Bevkov vrh","NameEnglish":"Bevkov vrh","Lat":"46.086652","Lon":"14.0068259","Category":"peak","Elevation":null},{"OpenStreetMapId":"1330277036","Name":"Golica/Kahlkogel","NameNative":"Golica/Kahlkogel","NameEnglish":"Golica/Kahlkogel","Lat":"46.4914478","Lon":"14.0546196","Category":"peak","Elevation":null},{"OpenStreetMapId":"1330277037","Name":"Grmada","NameNative":"Grmada","NameEnglish":"Grmada","Lat":"46.1280341","Lon":"14.4550445","Category":"peak","Elevation":null},{"OpenStreetMapId":"1330277039","Name":"Jalovec","NameNative":"Jalovec","NameEnglish":"Jalovec","Lat":"46.4215623","Lon":"13.6800326","Category":"peak","Elevation":null},{"OpenStreetMapId":"1330277040","Name":"Javornik","NameNative":"Javornik","NameEnglish":"Javornik","Lat":"45.8958985","Lon":"14.0718907","Category":"peak","Elevation":null},{"OpenStreetMapId":"1330277041","Name":"Kladivo / Hajnzturm","NameNative":"Kladivo / Hajnzturm","NameEnglish":"Kladivo / Hajnzturm","Lat":"46.4372953","Lon":"14.3439781","Category":"peak","Elevation":null},{"OpenStreetMapId":"1330277043","Name":"Komen","NameNative":"Komen","NameEnglish":"Komen","Lat":"46.4181107","Lon":"14.8463754","Category":"peak","Elevation":null},{"OpenStreetMapId":"1330277047","Name":"Velika Slivnica","NameNative":"Velika Slivnica","NameEnglish":"Velika Slivnica","Lat":"45.790115","Lon":"14.4080631","Category":"peak","Elevation":null},{"OpenStreetMapId":"1330277048","Name":"Smrekovec","NameNative":"Smrekovec","NameEnglish":"Smrekovec","Lat":"46.4180657","Lon":"14.8987387","Category":"peak","Elevation":null},{"OpenStreetMapId":"1330277049","Name":"Stenar","NameNative":"Stenar","NameEnglish":"Stenar","Lat":"46.4079784","Lon":"13.8186075","Category":"peak","Elevation":null},{"OpenStreetMapId":"1330277050","Name":"Veliki vrh / Hochturm","NameNative":"Veliki vrh / Hochturm","NameEnglish":"Veliki vrh / Hochturm","Lat":"46.4306401","Lon":"14.3095563","Category":"peak","Elevation":null},{"OpenStreetMapId":"1330277051","Name":"Špik","NameNative":"Špik","NameEnglish":"Špik","Lat":"46.387253","Lon":"15.1865847","Category":"peak","Elevation":null},{"OpenStreetMapId":"1332392728","Name":"Hleviška planina","NameNative":"Hleviška planina","NameEnglish":"Hleviška planina","Lat":"45.9844993","Lon":"13.9943615","Category":"peak","Elevation":null},{"OpenStreetMapId":"1345090849","Name":"Polhograjska gora","NameNative":"Polhograjska gora","NameEnglish":"Polhograjska gora","Lat":"46.0709136","Lon":"14.298764","Category":"peak","Elevation":null},{"OpenStreetMapId":"1361560631","Name":"Gradišče","NameNative":"Gradišče","NameEnglish":"Gradišče","Lat":"45.9622862","Lon":"14.822472","Category":"peak","Elevation":null},{"OpenStreetMapId":"1361602398","Name":"Grad Kostel","NameNative":"Grad Kostel","NameEnglish":"Kostel Castle","Lat":"45.5087714","Lon":"14.9101969","Category":"castle","Elevation":null},{"OpenStreetMapId":"1365450393","Name":null,"NameNative":null,"NameEnglish":null,"Lat":"46.647737","Lon":"16.2047955","Category":"peak","Elevation":null},{"OpenStreetMapId":"1366731627","Name":null,"NameNative":null,"NameEnglish":null,"Lat":"46.6285666","Lon":"16.1177638","Category":"peak","Elevation":null},{"OpenStreetMapId":"1369757737","Name":"Mali Triglav","NameNative":"Mali Triglav","NameEnglish":"Mali Triglav","Lat":"46.3769749","Lon":"13.8429506","Category":"peak","Elevation":null},{"OpenStreetMapId":"1369757864","Name":"Macesnovec","NameNative":"Macesnovec","NameEnglish":"Macesnovec","Lat":"46.403625","Lon":"13.906835","Category":"peak","Elevation":null},{"OpenStreetMapId":"1369801988","Name":"Goli vrh","NameNative":"Goli vrh","NameEnglish":"Goli vrh","Lat":"46.3307443","Lon":"14.0019089","Category":"peak","Elevation":null},{"OpenStreetMapId":"1369802538","Name":"Petkovec","NameNative":"Petkovec","NameEnglish":"Petkovec","Lat":"46.35717","Lon":"13.9437971","Category":"peak","Elevation":null},{"OpenStreetMapId":"1369819844","Name":"Lučka kopa","NameNative":"Lučka kopa","NameEnglish":"Lučka kopa","Lat":"46.3345136","Lon":"14.6404042","Category":"peak","Elevation":null},{"OpenStreetMapId":"1369926555","Name":"Hoč","NameNative":"Hoč","NameEnglish":"Hoč","Lat":"46.1929552","Lon":"13.9882196","Category":"peak","Elevation":null},{"OpenStreetMapId":"1369927682","Name":"Vogel","NameNative":"Vogel","NameEnglish":"Vogel","Lat":"46.238322","Lon":"13.8125179","Category":"peak","Elevation":null},{"OpenStreetMapId":"1369928071","Name":"Vrh nad Škrbino","NameNative":"Vrh nad Škrbino","NameEnglish":"Vrh nad Škrbino","Lat":"46.2544636","Lon":"13.7800602","Category":"peak","Elevation":null},{"OpenStreetMapId":"1369928139","Name":"Tolminski kuk","NameNative":"Tolminski kuk","NameEnglish":"Tolminski kuk","Lat":"46.2605885","Lon":"13.7569367","Category":"peak","Elevation":null},{"OpenStreetMapId":"1369929336","Name":"Kanjavec","NameNative":"Kanjavec","NameEnglish":"Kanjavec","Lat":"46.3600425","Lon":"13.8074689","Category":"peak","Elevation":null},{"OpenStreetMapId":"1369936535","Name":"Petelinovec","NameNative":"Petelinovec","NameEnglish":"Petelinovec","Lat":"45.9762368","Lon":"13.8008968","Category":"peak","Elevation":null},{"OpenStreetMapId":"1369986102","Name":null,"NameNative":null,"NameEnglish":null,"Lat":"46.0347373","Lon":"14.1021438","Category":"peak","Elevation":null},{"OpenStreetMapId":"1369989366","Name":"Sivka","NameNative":"Sivka","NameEnglish":"Sivka","Lat":"46.0728751","Lon":"14.2090991","Category":"peak","Elevation":null},{"OpenStreetMapId":"1370001188","Name":"Smrečnica","NameNative":"Smrečnica","NameEnglish":"Smrečnica","Lat":"45.6842359","Lon":"14.350933","Category":"peak","Elevation":null},{"OpenStreetMapId":"1370001871","Name":"Suhi vrh","NameNative":"Suhi vrh","NameEnglish":"Suhi vrh","Lat":"45.7378927","Lon":"14.3462527","Category":"peak","Elevation":null},{"OpenStreetMapId":"1370002428","Name":"Kurešček","NameNative":"Kurešček","NameEnglish":"Kurešček","Lat":"45.8792466","Lon":"14.3415254","Category":"peak","Elevation":null},{"OpenStreetMapId":"1370015169","Name":"Špruha","NameNative":"Špruha","NameEnglish":"Špruha","Lat":"46.1160486","Lon":"14.5438199","Category":"peak","Elevation":null},{"OpenStreetMapId":"1371742125","Name":"Vrbovec","NameNative":"Vrbovec","NameEnglish":"Vrbovec","Lat":"45.8029953","Lon":"14.7073265","Category":"peak","Elevation":null},{"OpenStreetMapId":"1371745547","Name":"Špelišček","NameNative":"Špelišček","NameEnglish":"Špelišček","Lat":"45.8204992","Lon":"14.6800052","Category":"peak","Elevation":null},{"OpenStreetMapId":"1371745744","Name":"Lačnik","NameNative":"Lačnik","NameEnglish":"Lačnik","Lat":"45.7025126","Lon":"14.4008569","Category":"peak","Elevation":null},{"OpenStreetMapId":"1371745787","Name":"Stražišče","NameNative":"Stražišče","NameEnglish":"Stražišče","Lat":"45.7289216","Lon":"14.4251755","Category":"peak","Elevation":null},{"OpenStreetMapId":"1371745813","Name":"Veliki greben","NameNative":"Veliki greben","NameEnglish":"Veliki greben","Lat":"45.7311369","Lon":"14.4411379","Category":"peak","Elevation":null},{"OpenStreetMapId":"1371745935","Name":"Jesenovec","NameNative":"Jesenovec","NameEnglish":"Jesenovec","Lat":"45.736865","Lon":"14.4440637","Category":"peak","Elevation":null},{"OpenStreetMapId":"1376506381","Name":null,"NameNative":null,"NameEnglish":null,"Lat":"46.5236313","Lon":"16.1756715","Category":"peak","Elevation":null},{"OpenStreetMapId":"1399131562","Name":"Gradič Zemon(Semenhif, Seml)","NameNative":"Gradič Zemon(Semenhif, Seml)","NameEnglish":"Gradič Zemon(Semenhif, Seml)","Lat":"45.5470026","Lon":"14.2614994","Category":"castle","Elevation":null},{"OpenStreetMapId":"1417984160","Name":"Ribnica 1","NameNative":"Ribnica 1","NameEnglish":"Ribnica 1","Lat":"46.3044955","Lon":"13.9119847","Category":"waterfall","Elevation":null},{"OpenStreetMapId":"1422666912","Name":"Nad Šitom glava","NameNative":"Nad Šitom glava","NameEnglish":"Nad Šitom glava","Lat":"46.4391431","Lon":"13.7387535","Category":"peak","Elevation":null},{"OpenStreetMapId":"1423339767","Name":"Bärentaler Kotschna / Struška","NameNative":"Bärentaler Kotschna / Struška","NameEnglish":"Bärentaler Kotschna / Struška","Lat":"46.4727414","Lon":"14.1228748","Category":"peak","Elevation":null},{"OpenStreetMapId":"1424192741","Name":"Mostnica","NameNative":"Mostnica","NameEnglish":"Mostnica","Lat":"46.3309869","Lon":"13.8748911","Category":"waterfall","Elevation":null},{"OpenStreetMapId":"1499274759","Name":null,"NameNative":null,"NameEnglish":null,"Lat":"46.6394946","Lon":"15.134692","Category":"waterfall","Elevation":null},{"OpenStreetMapId":"1560190198","Name":"Monte Piatto cima ovest / Trinški Vrh","NameNative":"Monte Piatto cima ovest / Trinški Vrh","NameEnglish":"Monte Piatto cima ovest / Trinški Vrh","Lat":"46.1873059","Lon":"13.6510648","Category":"peak","Elevation":null},{"OpenStreetMapId":"1568924011","Name":"Obolno","NameNative":"Obolno","NameEnglish":"Obolno","Lat":"46.0014043","Lon":"14.7792506","Category":"peak","Elevation":null},{"OpenStreetMapId":"1571233426","Name":"Otliski Maj","NameNative":"Otliski Maj","NameEnglish":"Otliski Maj","Lat":"45.9211521","Lon":"13.9078113","Category":"peak","Elevation":null},{"OpenStreetMapId":"1575646801","Name":"Gumanačka","NameNative":"Gumanačka","NameEnglish":"Gumanačka","Lat":"45.5033282","Lon":"14.4068782","Category":"peak","Elevation":null},{"OpenStreetMapId":"1584446449","Name":"Cifre","NameNative":"Cifre","NameEnglish":"Cifre","Lat":"45.5605052","Lon":"14.4897945","Category":"peak","Elevation":null},{"OpenStreetMapId":"1585153715","Name":"Bitigonia / Bitagonjek","NameNative":"Bitigonia / Bitagonjek","NameEnglish":"Bitigonia / Bitagonjek","Lat":"45.7738688","Lon":"13.7008445","Category":"peak","Elevation":null},{"OpenStreetMapId":"1585153824","Name":"Prečni vrh","NameNative":"Prečni vrh","NameEnglish":"Prečni vrh","Lat":"45.7772673","Lon":"13.6941396","Category":"peak","Elevation":null},{"OpenStreetMapId":"1585153945","Name":"Colle di Ternova / Trnovski hrib","NameNative":"Colle di Ternova / Trnovski hrib","NameEnglish":"Colle di Ternova / Trnovski hrib","Lat":"45.7699206","Lon":"13.7111676","Category":"peak","Elevation":null},{"OpenStreetMapId":"1594992983","Name":"Kavšakov vrh","NameNative":"Kavšakov vrh","NameEnglish":"Kavšakov vrh","Lat":"46.4696576","Lon":"14.881546","Category":"peak","Elevation":null},{"OpenStreetMapId":"1594992984","Name":"Kneževa špica","NameNative":"Kneževa špica","NameEnglish":"Kneževa špica","Lat":"46.451907","Lon":"14.7869714","Category":"peak","Elevation":null},{"OpenStreetMapId":"1594992985","Name":"Krišranov vrh","NameNative":"Krišranov vrh","NameEnglish":"Krišranov vrh","Lat":"46.4537893","Lon":"14.9297709","Category":"peak","Elevation":null},{"OpenStreetMapId":"1594992987","Name":"Ludranski vrh","NameNative":"Ludranski vrh","NameEnglish":"Ludranski vrh","Lat":"46.4537611","Lon":"14.8473587","Category":"peak","Elevation":null},{"OpenStreetMapId":"1594993005","Name":"Orožev vrh","NameNative":"Orožev vrh","NameEnglish":"Orožev vrh","Lat":"46.4545598","Lon":"14.8126217","Category":"peak","Elevation":null},{"OpenStreetMapId":"1594993008","Name":"Permanški vrh","NameNative":"Permanški vrh","NameEnglish":"Permanški vrh","Lat":"46.4482719","Lon":"14.8884995","Category":"peak","Elevation":null},{"OpenStreetMapId":"1594993009","Name":"Potoški vrh","NameNative":"Potoški vrh","NameEnglish":"Potoški vrh","Lat":"46.4668763","Lon":"14.7212726","Category":"peak","Elevation":null},{"OpenStreetMapId":"1594993025","Name":"Raduha","NameNative":"Raduha","NameEnglish":"Raduha","Lat":"46.4098558","Lon":"14.7376839","Category":"peak","Elevation":null},{"OpenStreetMapId":"1594993030","Name":"Sedlo","NameNative":"Sedlo","NameEnglish":"Sedlo","Lat":"46.4095107","Lon":"14.7883594","Category":"peak","Elevation":null},{"OpenStreetMapId":"1594993033","Name":"Stoparjev vrh","NameNative":"Stoparjev vrh","NameEnglish":"Stoparjev vrh","Lat":"46.4926927","Lon":"14.8182016","Category":"peak","Elevation":null},{"OpenStreetMapId":"1594993036","Name":"Veliki vrh","NameNative":"Veliki vrh","NameEnglish":"Veliki vrh","Lat":"46.4202823","Lon":"14.7168232","Category":"peak","Elevation":null},{"OpenStreetMapId":"1594993055","Name":"Veselk","NameNative":"Veselk","NameEnglish":"Veselk","Lat":"46.452794","Lon":"14.8633015","Category":"peak","Elevation":null},{"OpenStreetMapId":"1595044257","Name":"Ajčjak","NameNative":"Ajčjak","NameEnglish":"Ajčjak","Lat":"46.3241227","Lon":"14.8134434","Category":"peak","Elevation":null},{"OpenStreetMapId":"1595044272","Name":"Arničev vrh","NameNative":"Arničev vrh","NameEnglish":"Arničev vrh","Lat":"46.3370792","Lon":"14.7784983","Category":"peak","Elevation":null},{"OpenStreetMapId":"1595044278","Name":"Brdovski vrh","NameNative":"Brdovski vrh","NameEnglish":"Brdovski vrh","Lat":"46.3241635","Lon":"14.9768911","Category":"peak","Elevation":null},{"OpenStreetMapId":"1595044284","Name":"Medvedjak","NameNative":"Medvedjak","NameEnglish":"Medvedjak","Lat":"46.3650384","Lon":"14.8906015","Category":"peak","Elevation":null},{"OpenStreetMapId":"1595044298","Name":"Mrzli vrh","NameNative":"Mrzli vrh","NameEnglish":"Mrzli vrh","Lat":"46.3775628","Lon":"14.871629","Category":"peak","Elevation":null},{"OpenStreetMapId":"1595044301","Name":"Prednji vrh","NameNative":"Prednji vrh","NameEnglish":"Prednji vrh","Lat":"46.4270861","Lon":"14.9835002","Category":"peak","Elevation":null},{"OpenStreetMapId":"1595044302","Name":"Rajhovka","NameNative":"Rajhovka","NameEnglish":"Rajhovka","Lat":"46.333746","Lon":"14.8244674","Category":"peak","Elevation":null},{"OpenStreetMapId":"1595044305","Name":"Slanica","NameNative":"Slanica","NameEnglish":"Slanica","Lat":"46.4275305","Lon":"14.9614503","Category":"peak","Elevation":null},{"OpenStreetMapId":"1595044309","Name":"Staknetov vrh","NameNative":"Staknetov vrh","NameEnglish":"Staknetov vrh","Lat":"46.4332802","Lon":"14.9135582","Category":"peak","Elevation":null},{"OpenStreetMapId":"1595044314","Name":"Virtičev vrh","NameNative":"Virtičev vrh","NameEnglish":"Virtičev vrh","Lat":"46.4461368","Lon":"14.9713392","Category":"peak","Elevation":null},{"OpenStreetMapId":"1595061499","Name":"Godčev vrh","NameNative":"Godčev vrh","NameEnglish":"Godčev vrh","Lat":"46.4978867","Lon":"14.9386649","Category":"peak","Elevation":null},{"OpenStreetMapId":"1595061509","Name":"Uršlja gora","NameNative":"Uršlja gora","NameEnglish":"Uršlja gora","Lat":"46.4855653","Lon":"14.9615819","Category":"peak","Elevation":null},{"OpenStreetMapId":"1595061517","Name":"Črni vrh","NameNative":"Črni vrh","NameEnglish":"Črni vrh","Lat":"46.4924489","Lon":"14.9767339","Category":"peak","Elevation":null},{"OpenStreetMapId":"1595165287","Name":"Jezerski Stog","NameNative":"Jezerski Stog","NameEnglish":"Jezerski Stog","Lat":"46.3383911","Lon":"13.8451511","Category":"peak","Elevation":null},{"OpenStreetMapId":"1595165300","Name":"Lanževica","NameNative":"Lanževica","NameEnglish":"Lanževica","Lat":"46.2967951","Lon":"13.7248198","Category":"peak","Elevation":null},{"OpenStreetMapId":"1595165332","Name":"Mala Rjavina","NameNative":"Mala Rjavina","NameEnglish":"Mala Rjavina","Lat":"46.3904685","Lon":"13.8767102","Category":"peak","Elevation":null},{"OpenStreetMapId":"1595165340","Name":"Mali Šmohor","NameNative":"Mali Šmohor","NameEnglish":"Mali Šmohor","Lat":"46.2743488","Lon":"13.6855661","Category":"peak","Elevation":null},{"OpenStreetMapId":"1595165348","Name":"Škofič","NameNative":"Škofič","NameEnglish":"Škofič","Lat":"46.2552357","Lon":"13.6888915","Category":"peak","Elevation":null},{"OpenStreetMapId":"1595165387","Name":"Mišelj vrh","NameNative":"Mišelj vrh","NameEnglish":"Mišelj vrh","Lat":"46.3562755","Lon":"13.8380648","Category":"peak","Elevation":null},{"OpenStreetMapId":"1595165392","Name":"Rž","NameNative":"Rž","NameEnglish":"Rž","Lat":"46.3816553","Lon":"13.8591456","Category":"peak","Elevation":null},{"OpenStreetMapId":"1595165396","Name":"Rjavec","NameNative":"Rjavec","NameEnglish":"Rjavec","Lat":"46.3717999","Lon":"13.8393234","Category":"peak","Elevation":null},{"OpenStreetMapId":"1595165434","Name":"Srednji vrh","NameNative":"Srednji vrh","NameEnglish":"Srednji vrh","Lat":"46.2754848","Lon":"13.6541881","Category":"peak","Elevation":null},{"OpenStreetMapId":"1595165440","Name":"Srednji vrh","NameNative":"Srednji vrh","NameEnglish":"Srednji vrh","Lat":"46.2915417","Lon":"13.7406542","Category":"peak","Elevation":null},{"OpenStreetMapId":"1595165450","Name":"Velika Baba","NameNative":"Velika Baba","NameEnglish":"Velika Baba","Lat":"46.2946246","Lon":"13.7082713","Category":"peak","Elevation":null},{"OpenStreetMapId":"1595165479","Name":"Mala Zelnarica","NameNative":"Mala Zelnarica","NameEnglish":"Mala Zelnarica","Lat":"46.3386953","Lon":"13.7893136","Category":"peak","Elevation":null},{"OpenStreetMapId":"1595165486","Name":"Veliki Lemež","NameNative":"Veliki Lemež","NameEnglish":"Veliki Lemež","Lat":"46.28839","Lon":"13.6734914","Category":"peak","Elevation":null},{"OpenStreetMapId":"1595165507","Name":"Rjavina","NameNative":"Rjavina","NameEnglish":"Rjavina","Lat":"46.3918988","Lon":"13.8808425","Category":"peak","Elevation":null},{"OpenStreetMapId":"1595165513","Name":"Veliki Šmohor","NameNative":"Veliki Šmohor","NameEnglish":"Veliki Šmohor","Lat":"46.2794256","Lon":"13.6869988","Category":"peak","Elevation":null},{"OpenStreetMapId":"1595165524","Name":"Vrh Korit","NameNative":"Vrh Korit","NameEnglish":"Vrh Korit","Lat":"46.2975776","Lon":"13.7752725","Category":"peak","Elevation":null},{"OpenStreetMapId":"1609024487","Name":"Cima del Lago / Jerebica","NameNative":"Cima del Lago / Jerebica","NameEnglish":"Cima del Lago / Jerebica","Lat":"46.3984054","Lon":"13.5646857","Category":"peak","Elevation":null},{"OpenStreetMapId":"1609339902","Name":"Cima Inese / Górenji Vogel","NameNative":"Cima Inese / Górenji Vogel","NameEnglish":"Cima Inese / Górenji Vogel","Lat":"46.3926349","Lon":"13.5522349","Category":"peak","Elevation":null},{"OpenStreetMapId":"1609339914","Name":"Gorenji Krivi rob","NameNative":"Gorenji Krivi rob","NameEnglish":"Gorenji Krivi rob","Lat":"46.3963083","Lon":"13.5562083","Category":"peak","Elevation":null},{"OpenStreetMapId":"1614820926","Name":"Mogenza grande / Veliki Snežni vrh","NameNative":"Mogenza grande / Veliki Snežni vrh","NameEnglish":"Mogenza grande / Veliki Snežni vrh","Lat":"46.3898871","Lon":"13.5411511","Category":"peak","Elevation":null},{"OpenStreetMapId":"1641750727","Name":"Petelinjek / Hahnenwipfel","NameNative":"Petelinjek / Hahnenwipfel","NameEnglish":"Petelinjek / Hahnenwipfel","Lat":"46.518767","Lon":"13.7334012","Category":"peak","Elevation":null},{"OpenStreetMapId":"1641750730","Name":"Taubenkogel","NameNative":"Taubenkogel","NameEnglish":"Taubenkogel","Lat":"46.5232843","Lon":"13.7262892","Category":"peak","Elevation":null},{"OpenStreetMapId":"1650812032","Name":"Na Vrhu","NameNative":"Na Vrhu","NameEnglish":"Na Vrhu","Lat":"46.2638995","Lon":"13.5240995","Category":"peak","Elevation":null},{"OpenStreetMapId":"1662334611","Name":"Kuk","NameNative":"Kuk","NameEnglish":"Kuk","Lat":"46.1956452","Lon":"13.6194867","Category":"peak","Elevation":null},{"OpenStreetMapId":"1664112040","Name":"Monte La Cima","NameNative":"Monte La Cima","NameEnglish":"Monte La Cima","Lat":"46.1771618","Lon":"13.6553575","Category":"peak","Elevation":null},{"OpenStreetMapId":"1674377098","Name":"Brdo","NameNative":"Brdo","NameEnglish":"Brdo","Lat":"46.2689104","Lon":"13.4112055","Category":"peak","Elevation":null},{"OpenStreetMapId":"1675512681","Name":"Bavški Grintavec","NameNative":"Bavški Grintavec","NameEnglish":"Bavški Grintavec","Lat":"46.369003","Lon":"13.6702599","Category":"peak","Elevation":null},{"OpenStreetMapId":"1675512690","Name":"Skutnik","NameNative":"Skutnik","NameEnglish":"Skutnik","Lat":"46.3865862","Lon":"13.6703741","Category":"peak","Elevation":null},{"OpenStreetMapId":"1675519704","Name":"Vrh Brda","NameNative":"Vrh Brda","NameEnglish":"Vrh Brda","Lat":"46.3626866","Lon":"13.6597427","Category":"peak","Elevation":null},{"OpenStreetMapId":"1675519711","Name":"Vrh Ruš","NameNative":"Vrh Ruš","NameEnglish":"Vrh Ruš","Lat":"46.362047","Lon":"13.6545997","Category":"peak","Elevation":null},{"OpenStreetMapId":"1676708361","Name":"Briceljk","NameNative":"Briceljk","NameEnglish":"Briceljk","Lat":"46.395005","Lon":"13.6318661","Category":"peak","Elevation":null},{"OpenStreetMapId":"1676708362","Name":"Morež","NameNative":"Morež","NameEnglish":"Morež","Lat":"46.3986813","Lon":"13.6409364","Category":"peak","Elevation":null},{"OpenStreetMapId":"1690584793","Name":"Kucelj","NameNative":"Kucelj","NameEnglish":"Kucelj","Lat":"45.9921438","Lon":"14.7388409","Category":"peak","Elevation":null},{"OpenStreetMapId":"1732797403","Name":"Posnica","NameNative":"Posnica","NameEnglish":"Posnica","Lat":"46.2718381","Lon":"13.5544034","Category":"peak","Elevation":null},{"OpenStreetMapId":"1732799683","Name":"Baba","NameNative":"Baba","NameEnglish":"Baba","Lat":"46.2561764","Lon":"13.5703015","Category":"peak","Elevation":null},{"OpenStreetMapId":"1732799684","Name":"Jezerski vrh","NameNative":"Jezerski vrh","NameEnglish":"Jezerski vrh","Lat":"46.2666261","Lon":"13.5668144","Category":"peak","Elevation":null},{"OpenStreetMapId":"1732799685","Name":"Kuntri","NameNative":"Kuntri","NameEnglish":"Kuntri","Lat":"46.2833531","Lon":"13.5295931","Category":"peak","Elevation":null},{"OpenStreetMapId":"1732800944","Name":"Starijski vrh","NameNative":"Starijski vrh","NameEnglish":"Starijski vrh","Lat":"46.2609013","Lon":"13.5476311","Category":"peak","Elevation":null},{"OpenStreetMapId":"1747485297","Name":"Dolgi hrbet","NameNative":"Dolgi hrbet","NameEnglish":"Dolgi hrbet","Lat":"46.3631227","Lon":"14.5458712","Category":"peak","Elevation":null},{"OpenStreetMapId":"1748365048","Name":"Gnjilica","NameNative":"Gnjilica","NameEnglish":"Gnjilica","Lat":"46.291332","Lon":"13.3837576","Category":"peak","Elevation":null},{"OpenStreetMapId":"1748365052","Name":"Mali Muzec","NameNative":"Mali Muzec","NameEnglish":"Mali Muzec","Lat":"46.2872538","Lon":"13.4183984","Category":"peak","Elevation":null},{"OpenStreetMapId":"1748365055","Name":"Nad Ohojami","NameNative":"Nad Ohojami","NameEnglish":"Nad Ohojami","Lat":"46.2919021","Lon":"13.3990781","Category":"peak","Elevation":null},{"OpenStreetMapId":"1748365058","Name":"Veliki Muzec","NameNative":"Veliki Muzec","NameEnglish":"Veliki Muzec","Lat":"46.2890392","Lon":"13.411017","Category":"peak","Elevation":null},{"OpenStreetMapId":"1758162862","Name":"Grmada","NameNative":"Grmada","NameEnglish":"Grmada","Lat":"45.5387221","Lon":"13.9673567","Category":"peak","Elevation":null},{"OpenStreetMapId":"1777017545","Name":"Brag","NameNative":"Brag","NameEnglish":"Brag","Lat":"45.6060423","Lon":"13.8902127","Category":"peak","Elevation":null},{"OpenStreetMapId":"1777017546","Name":"Stransko brdo","NameNative":"Stransko brdo","NameEnglish":"Stransko brdo","Lat":"45.6133936","Lon":"13.8997716","Category":"peak","Elevation":null},{"OpenStreetMapId":"1777017669","Name":"Žerjalski vrh","NameNative":"Žerjalski vrh","NameEnglish":"Žerjalski vrh","Lat":"45.6105097","Lon":"13.8902127","Category":"peak","Elevation":null},{"OpenStreetMapId":"1779428038","Name":"Hožičev vrh","NameNative":"Hožičev vrh","NameEnglish":"Hožičev vrh","Lat":"46.5355314","Lon":"15.3699112","Category":"peak","Elevation":null},{"OpenStreetMapId":"1794170646","Name":"Vrh Lipnika","NameNative":"Vrh Lipnika","NameEnglish":"Vrh Lipnika","Lat":"46.3025354","Lon":"13.5206292","Category":"peak","Elevation":null},{"OpenStreetMapId":"1794218014","Name":"Rdeči rob","NameNative":"Rdeči rob","NameEnglish":"Rdeči rob","Lat":"46.2501495","Lon":"13.6962338","Category":"peak","Elevation":null},{"OpenStreetMapId":"1811179198","Name":"Stari vrh","NameNative":"Stari vrh","NameEnglish":"Stari vrh","Lat":"46.1705354","Lon":"14.1763569","Category":"peak","Elevation":null},{"OpenStreetMapId":"1811180119","Name":"Mladi vrh","NameNative":"Mladi vrh","NameEnglish":"Mladi vrh","Lat":"46.17344","Lon":"14.16347","Category":"peak","Elevation":null},{"OpenStreetMapId":"1812388421","Name":"Prva ravan","NameNative":"Prva ravan","NameEnglish":"Prva ravan","Lat":"46.1543208","Lon":"14.1198127","Category":"peak","Elevation":null},{"OpenStreetMapId":"1839038753","Name":"Breznik","NameNative":"Breznik","NameEnglish":"Breznik","Lat":"46.1306852","Lon":"14.3791672","Category":"peak","Elevation":null},{"OpenStreetMapId":"1842658780","Name":"Medvedova glava","NameNative":"Medvedova glava","NameEnglish":"Medvedova glava","Lat":"45.5680959","Lon":"14.4865795","Category":"peak","Elevation":null},{"OpenStreetMapId":"1842880726","Name":"Škodovnik","NameNative":"Škodovnik","NameEnglish":"Škodovnik","Lat":"45.6756862","Lon":"14.4009863","Category":"peak","Elevation":null},{"OpenStreetMapId":"1843185014","Name":"Koroška Rinka","NameNative":"Koroška Rinka","NameEnglish":"Koroška Rinka","Lat":"46.367725","Lon":"14.565127","Category":"peak","Elevation":null},{"OpenStreetMapId":"1843185019","Name":"Kranjska Rinka","NameNative":"Kranjska Rinka","NameEnglish":"Kranjska Rinka","Lat":"46.365612","Lon":"14.5636689","Category":"peak","Elevation":null},{"OpenStreetMapId":"1843185022","Name":"Mala Rinka","NameNative":"Mala Rinka","NameEnglish":"Mala Rinka","Lat":"46.36576","Lon":"14.569298","Category":"peak","Elevation":null},{"OpenStreetMapId":"1843185025","Name":"Ojstrica","NameNative":"Ojstrica","NameEnglish":"Ojstrica","Lat":"46.3639212","Lon":"14.6372395","Category":"peak","Elevation":null},{"OpenStreetMapId":"1843185027","Name":"Planjava","NameNative":"Planjava","NameEnglish":"Planjava","Lat":"46.3565325","Lon":"14.6137204","Category":"peak","Elevation":null},{"OpenStreetMapId":"1843187729","Name":"Štajerska Rinka","NameNative":"Štajerska Rinka","NameEnglish":"Štajerska Rinka","Lat":"46.368163","Lon":"14.56734","Category":"peak","Elevation":null},{"OpenStreetMapId":"1845061925","Name":"Kaštelir / Monte Castellier","NameNative":"Kaštelir / Monte Castellier","NameEnglish":"Kaštelir / Monte Castellier","Lat":"45.5839324","Lon":"13.7811841","Category":"peak","Elevation":null},{"OpenStreetMapId":"1845131416","Name":"Poljane","NameNative":"Poljane","NameEnglish":"Poljane","Lat":"45.5019408","Lon":"13.7400463","Category":"peak","Elevation":null},{"OpenStreetMapId":"1845139181","Name":"Novi Brič","NameNative":"Novi Brič","NameEnglish":"Novi Brič","Lat":"45.4655012","Lon":"13.7416485","Category":"peak","Elevation":null},{"OpenStreetMapId":"1845140454","Name":"Tinjan","NameNative":"Tinjan","NameEnglish":"Tinjan","Lat":"45.5614753","Lon":"13.8356287","Category":"peak","Elevation":null},{"OpenStreetMapId":"1845695898","Name":"Monte Buona Posta","NameNative":"Monte Buona Posta","NameEnglish":"Monte Buona Posta","Lat":"46.4705291","Lon":"13.6980596","Category":"peak","Elevation":null},{"OpenStreetMapId":"1845695900","Name":"Ponza Piccola / Mala Ponca","NameNative":"Ponza Piccola / Mala Ponca","NameEnglish":"Ponza Piccola / Mala Ponca","Lat":"46.46827","Lon":"13.6927892","Category":"peak","Elevation":null},{"OpenStreetMapId":"1846906415","Name":"Gomanska gora","NameNative":"Gomanska gora","NameEnglish":"Gomanska gora","Lat":"45.5102366","Lon":"14.4158703","Category":"peak","Elevation":null},{"OpenStreetMapId":"1851447298","Name":null,"NameNative":null,"NameEnglish":null,"Lat":"46.2841197","Lon":"14.5629697","Category":"waterfall","Elevation":null},{"OpenStreetMapId":"1853503857","Name":"Trenk","NameNative":"Trenk","NameEnglish":"Trenk","Lat":"45.8866175","Lon":"14.48428","Category":"peak","Elevation":null},{"OpenStreetMapId":"1859049903","Name":"Samostan Lazaristov - Mirenski grad","NameNative":"Samostan Lazaristov - Mirenski grad","NameEnglish":"Samostan Lazaristov - Mirenski grad","Lat":"45.8835939","Lon":"13.6031871","Category":"castle","Elevation":null},{"OpenStreetMapId":"1868079727","Name":"Kosca","NameNative":"Kosca","NameEnglish":"Kosca","Lat":"45.9749041","Lon":"14.7536306","Category":"waterfall","Elevation":null},{"OpenStreetMapId":"1870566366","Name":null,"NameNative":null,"NameEnglish":null,"Lat":"46.3687061","Lon":"14.6639472","Category":"waterfall","Elevation":null},{"OpenStreetMapId":"1871759091","Name":"Techantinger Mittagskogel / Trupejevo poldne","NameNative":"Techantinger Mittagskogel / Trupejevo poldne","NameEnglish":"Techantinger Mittagskogel / Trupejevo poldne","Lat":"46.5153358","Lon":"13.8606426","Category":"peak","Elevation":null},{"OpenStreetMapId":"1883527445","Name":"Javorjev gric'","NameNative":"Javorjev gric'","NameEnglish":"Javorjev gric'","Lat":"45.8708047","Lon":"14.0966567","Category":"peak","Elevation":null},{"OpenStreetMapId":"1883527446","Name":"Srednja gora","NameNative":"Srednja gora","NameEnglish":"Srednja gora","Lat":"45.8711103","Lon":"14.0720132","Category":"peak","Elevation":null},{"OpenStreetMapId":"1883583775","Name":"Dedni vrh","NameNative":"Dedni vrh","NameEnglish":"Dedni vrh","Lat":"45.8898894","Lon":"14.0792218","Category":"peak","Elevation":null},{"OpenStreetMapId":"1883586870","Name":"Habatov vrh","NameNative":"Habatov vrh","NameEnglish":"Habatov vrh","Lat":"45.9022359","Lon":"14.0574774","Category":"peak","Elevation":null},{"OpenStreetMapId":"1883644010","Name":"Debeli kamen","NameNative":"Debeli kamen","NameEnglish":"Debeli kamen","Lat":"45.7359203","Lon":"14.322798","Category":"peak","Elevation":null},{"OpenStreetMapId":"1885046994","Name":"Voljčev hrib","NameNative":"Voljčev hrib","NameEnglish":"Voljčev hrib","Lat":"46.3515889","Lon":"14.1724768","Category":"peak","Elevation":null},{"OpenStreetMapId":"1887225571","Name":"Lisca","NameNative":"Lisca","NameEnglish":"Lisca","Lat":"46.067967","Lon":"15.284804","Category":"peak","Elevation":null},{"OpenStreetMapId":"1888746937","Name":"Veliki Cirnik","NameNative":"Veliki Cirnik","NameEnglish":"Veliki Cirnik","Lat":"45.8542109","Lon":"15.6008296","Category":"peak","Elevation":null},{"OpenStreetMapId":"1914018315","Name":"Vrh","NameNative":"Vrh","NameEnglish":"Vrh","Lat":"45.9107799","Lon":"14.1703468","Category":"peak","Elevation":null},{"OpenStreetMapId":"1914019725","Name":"Andrejev grič","NameNative":"Andrejev grič","NameEnglish":"Andrejev grič","Lat":"45.8938865","Lon":"14.1677534","Category":"peak","Elevation":null},{"OpenStreetMapId":"1914026755","Name":"Orlov grič","NameNative":"Orlov grič","NameEnglish":"Orlov grič","Lat":"45.8752723","Lon":"14.1561296","Category":"peak","Elevation":null},{"OpenStreetMapId":"1914028343","Name":"Suhi grič","NameNative":"Suhi grič","NameEnglish":"Suhi grič","Lat":"45.8813786","Lon":"14.196064","Category":"peak","Elevation":null},{"OpenStreetMapId":"1914035080","Name":"Srnjak","NameNative":"Srnjak","NameEnglish":"Srnjak","Lat":"45.8741374","Lon":"14.1744843","Category":"peak","Elevation":null},{"OpenStreetMapId":"1914037722","Name":"Zažganovec","NameNative":"Zažganovec","NameEnglish":"Zažganovec","Lat":"45.8617426","Lon":"14.1559254","Category":"peak","Elevation":null},{"OpenStreetMapId":"1914039770","Name":"Klešni vrh","NameNative":"Klešni vrh","NameEnglish":"Klešni vrh","Lat":"45.8596749","Lon":"14.172376","Category":"peak","Elevation":null},{"OpenStreetMapId":"1914040504","Name":"Stranski vrh","NameNative":"Stranski vrh","NameEnglish":"Stranski vrh","Lat":"45.851647","Lon":"14.1976351","Category":"peak","Elevation":null},{"OpenStreetMapId":"1914047097","Name":"Volčji vrh","NameNative":"Volčji vrh","NameEnglish":"Volčji vrh","Lat":"45.8472665","Lon":"14.1932177","Category":"peak","Elevation":null},{"OpenStreetMapId":"1914047568","Name":"Lipovec","NameNative":"Lipovec","NameEnglish":"Lipovec","Lat":"45.8422537","Lon":"14.1955768","Category":"peak","Elevation":null},{"OpenStreetMapId":"1914048765","Name":"Špilnik","NameNative":"Špilnik","NameEnglish":"Špilnik","Lat":"45.84154","Lon":"14.1887569","Category":"peak","Elevation":null},{"OpenStreetMapId":"1914049472","Name":"Sv. Lovrenc","NameNative":"Sv. Lovrenc","NameEnglish":"Sv. Lovrenc","Lat":"45.8390281","Lon":"14.1672986","Category":"peak","Elevation":null},{"OpenStreetMapId":"1914049741","Name":"Sajevka","NameNative":"Sajevka","NameEnglish":"Sajevka","Lat":"45.835598","Lon":"14.1446094","Category":"peak","Elevation":null},{"OpenStreetMapId":"1914051292","Name":"Mali Rogatec","NameNative":"Mali Rogatec","NameEnglish":"Mali Rogatec","Lat":"45.8484933","Lon":"14.1237277","Category":"peak","Elevation":null},{"OpenStreetMapId":"1914052607","Name":"Srebrnjak","NameNative":"Srebrnjak","NameEnglish":"Srebrnjak","Lat":"45.862981","Lon":"14.1360435","Category":"peak","Elevation":null},{"OpenStreetMapId":"1936298585","Name":"Mali Draški vrh","NameNative":"Mali Draški vrh","NameEnglish":"Mali Draški vrh","Lat":"46.3629699","Lon":"13.8915731","Category":"peak","Elevation":null},{"OpenStreetMapId":"1962644789","Name":"Tičnica","NameNative":"Tičnica","NameEnglish":"Tičnica","Lat":"46.1422468","Lon":"14.6176627","Category":"peak","Elevation":null},{"OpenStreetMapId":"1962644791","Name":"Veliki vrh","NameNative":"Veliki vrh","NameEnglish":"Veliki vrh","Lat":"46.1275818","Lon":"14.6222914","Category":"peak","Elevation":null},{"OpenStreetMapId":"1962645322","Name":"Šumberk","NameNative":"Šumberk","NameEnglish":"Šumberk","Lat":"46.1399909","Lon":"14.6078832","Category":"peak","Elevation":null},{"OpenStreetMapId":"1965967561","Name":"Ključ","NameNative":"Ključ","NameEnglish":"Ključ","Lat":"46.0397897","Lon":"14.343738","Category":"peak","Elevation":null},{"OpenStreetMapId":"1966671868","Name":"Kladnik","NameNative":"Kladnik","NameEnglish":"Kladnik","Lat":"46.0373898","Lon":"14.3283554","Category":"peak","Elevation":null},{"OpenStreetMapId":"1967755986","Name":"Bezenica","NameNative":"Bezenica","NameEnglish":"Bezenica","Lat":"46.054974","Lon":"14.3605432","Category":"peak","Elevation":null},{"OpenStreetMapId":"1967755987","Name":"Brusnik","NameNative":"Brusnik","NameEnglish":"Brusnik","Lat":"46.0398972","Lon":"14.3608097","Category":"peak","Elevation":null},{"OpenStreetMapId":"1967755988","Name":"Debenk","NameNative":"Debenk","NameEnglish":"Debenk","Lat":"46.0572673","Lon":"14.3941954","Category":"peak","Elevation":null},{"OpenStreetMapId":"1967755991","Name":"Jazbina","NameNative":"Jazbina","NameEnglish":"Jazbina","Lat":"46.054113","Lon":"14.3871021","Category":"peak","Elevation":null},{"OpenStreetMapId":"1967755992","Name":"Kovnik","NameNative":"Kovnik","NameEnglish":"Kovnik","Lat":"46.0363332","Lon":"14.3371611","Category":"peak","Elevation":null},{"OpenStreetMapId":"1967755995","Name":null,"NameNative":null,"NameEnglish":null,"Lat":"46.0563985","Lon":"14.385762","Category":"peak","Elevation":null},{"OpenStreetMapId":"2018641182","Name":"Schwarzkogel / Kresišče","NameNative":"Schwarzkogel / Kresišče","NameEnglish":"Schwarzkogel / Kresišče","Lat":"46.5198282","Lon":"13.8951836","Category":"peak","Elevation":null},{"OpenStreetMapId":"2041654425","Name":"Ančilo","NameNative":"Ančilo","NameEnglish":"Ančilo","Lat":"46.0309566","Lon":"13.5583955","Category":"peak","Elevation":null},{"OpenStreetMapId":"2041654430","Name":"Goderno","NameNative":"Goderno","NameEnglish":"Goderno","Lat":"46.082801","Lon":"13.6045765","Category":"peak","Elevation":null},{"OpenStreetMapId":"2041654431","Name":"Nad Robom","NameNative":"Nad Robom","NameEnglish":"Nad Robom","Lat":"46.0462392","Lon":"13.5659692","Category":"peak","Elevation":null},{"OpenStreetMapId":"2041654434","Name":"Vrh","NameNative":"Vrh","NameEnglish":"Vrh","Lat":"46.0987943","Lon":"13.6127968","Category":"peak","Elevation":null},{"OpenStreetMapId":"2045925602","Name":"Monte Coste / Kosten","NameNative":"Monte Coste / Kosten","NameEnglish":"Monte Coste / Kosten","Lat":"45.755936","Lon":"13.7381869","Category":"peak","Elevation":null},{"OpenStreetMapId":"2046317365","Name":"Osojna","NameNative":"Osojna","NameEnglish":"Osojna","Lat":"45.7666034","Lon":"13.7175898","Category":"peak","Elevation":null},{"OpenStreetMapId":"2049497576","Name":"Jeterbenk","NameNative":"Jeterbenk","NameEnglish":"Jeterbenk","Lat":"46.1023806","Lon":"14.3871568","Category":"peak","Elevation":null},{"OpenStreetMapId":"2088615878","Name":"Kavčič","NameNative":"Kavčič","NameEnglish":"Kavčič","Lat":"45.4712357","Lon":"13.983621","Category":"peak","Elevation":null},{"OpenStreetMapId":"2088615882","Name":"Lipnik","NameNative":"Lipnik","NameEnglish":"Lipnik","Lat":"45.4807868","Lon":"13.9652854","Category":"peak","Elevation":null},{"OpenStreetMapId":"2093681074","Name":"Grad Kolovrat","NameNative":"Grad Kolovrat","NameEnglish":"Grad Kolovrat","Lat":"46.1647487","Lon":"14.8769556","Category":"castle","Elevation":null},{"OpenStreetMapId":"2108916947","Name":"Žleb","NameNative":"Žleb","NameEnglish":"Žleb","Lat":"46.4341407","Lon":"15.5166684","Category":"waterfall","Elevation":null},{"OpenStreetMapId":"2108976850","Name":"Medanski hrib","NameNative":"Medanski hrib","NameEnglish":"Medanski hrib","Lat":"46.1257555","Lon":"14.4292817","Category":"peak","Elevation":null},{"OpenStreetMapId":"2122284648","Name":"Gradec","NameNative":"Gradec","NameEnglish":"Gradec","Lat":"46.0243642","Lon":"13.5864901","Category":"peak","Elevation":null},{"OpenStreetMapId":"2122284649","Name":"Strmec","NameNative":"Strmec","NameEnglish":"Strmec","Lat":"46.0351929","Lon":"13.5665923","Category":"peak","Elevation":null},{"OpenStreetMapId":"2134182610","Name":"Graščina Zapuže","NameNative":"Graščina Zapuže","NameEnglish":"Graščina Zapuže","Lat":"45.947807","Lon":"15.0710074","Category":"castle","Elevation":null},{"OpenStreetMapId":"2143684695","Name":"Mali Kanin / Canin basso","NameNative":"Mali Kanin / Canin basso","NameEnglish":"Mali Kanin / Canin basso","Lat":"46.3571608","Lon":"13.4375824","Category":"peak","Elevation":null},{"OpenStreetMapId":"2143684696","Name":"Črni Vogel / Cerni Vogu","NameNative":"Črni Vogel / Cerni Vogu","NameEnglish":"Črni Vogel / Cerni Vogu","Lat":"46.3483531","Lon":"13.4425654","Category":"peak","Elevation":null},{"OpenStreetMapId":"2143684697","Name":"Vrh Laške Planje / Lasca Plagna","NameNative":"Vrh Laške Planje / Lasca Plagna","NameEnglish":"Vrh Laške Planje / Lasca Plagna","Lat":"46.3441175","Lon":"13.4442668","Category":"peak","Elevation":null},{"OpenStreetMapId":"2143684698","Name":"Vrh Žlebi / Monte Slebe","NameNative":"Vrh Žlebi / Monte Slebe","NameEnglish":"Vrh Žlebi / Monte Slebe","Lat":"46.3401971","Lon":"13.4445824","Category":"peak","Elevation":null},{"OpenStreetMapId":"2143684700","Name":"Pod Kaninom","NameNative":"Pod Kaninom","NameEnglish":"Pod Kaninom","Lat":"46.3542699","Lon":"13.4369714","Category":"peak","Elevation":null},{"OpenStreetMapId":"2184634611","Name":"Grad Kalec","NameNative":"Grad Kalec","NameEnglish":"Grad Kalec","Lat":"45.642775","Lon":"14.2465582","Category":"castle","Elevation":null},{"OpenStreetMapId":"2222126136","Name":null,"NameNative":null,"NameEnglish":null,"Lat":"45.520256","Lon":"13.8760942","Category":"waterfall","Elevation":null},{"OpenStreetMapId":"2262342695","Name":"Grad Štanjel","NameNative":"Grad Štanjel","NameEnglish":"Štanjel castle","Lat":"45.8235622","Lon":"13.8448803","Category":"castle","Elevation":null},{"OpenStreetMapId":"2269352798","Name":"Kuk","NameNative":"Kuk","NameEnglish":"Kuk","Lat":"45.9675478","Lon":"13.7611732","Category":"peak","Elevation":null},{"OpenStreetMapId":"2271511500","Name":"Mrzli vrh","NameNative":"Mrzli vrh","NameEnglish":"Mrzli vrh","Lat":"46.2097247","Lon":"13.5623672","Category":"peak","Elevation":null},{"OpenStreetMapId":"2276767430","Name":"Šentanski vrh","NameNative":"Šentanski vrh","NameEnglish":"Šentanski vrh","Lat":"46.382238","Lon":"14.2541398","Category":"peak","Elevation":null},{"OpenStreetMapId":"2277878424","Name":"Sodni vrh","NameNative":"Sodni vrh","NameEnglish":"Sodni vrh","Lat":"45.9643488","Lon":"14.3990757","Category":"peak","Elevation":null},{"OpenStreetMapId":"2290172370","Name":"Grmuč","NameNative":"Grmuč","NameEnglish":"Grmuč","Lat":"46.2175447","Lon":"13.7074762","Category":"peak","Elevation":null},{"OpenStreetMapId":"2292125257","Name":"Možičev vrh","NameNative":"Možičev vrh","NameEnglish":"Možičev vrh","Lat":"46.601202","Lon":"15.5153495","Category":"peak","Elevation":null},{"OpenStreetMapId":"2305953981","Name":"Kovk","NameNative":"Kovk","NameEnglish":"Kovk","Lat":"46.0015493","Lon":"14.10952","Category":"peak","Elevation":null},{"OpenStreetMapId":"2305953982","Name":"Kovk","NameNative":"Kovk","NameEnglish":"Kovk","Lat":"46.0181783","Lon":"14.163141","Category":"peak","Elevation":null},{"OpenStreetMapId":"2305953983","Name":"Kovk","NameNative":"Kovk","NameEnglish":"Kovk","Lat":"46.0472951","Lon":"14.071936","Category":"peak","Elevation":null},{"OpenStreetMapId":"2305953984","Name":"Kovk","NameNative":"Kovk","NameEnglish":"Kovk","Lat":"46.0599062","Lon":"14.0885998","Category":"peak","Elevation":null},{"OpenStreetMapId":"2305953992","Name":"Sveta Ana","NameNative":"Sveta Ana","NameEnglish":"Sveta Ana","Lat":"46.0573425","Lon":"14.0985941","Category":"peak","Elevation":null},{"OpenStreetMapId":"2315916131","Name":"Monte Ermada NE / Ostri vrh","NameNative":"Monte Ermada NE / Ostri vrh","NameEnglish":"Monte Ermada NE / Ostri vrh","Lat":"45.7981064","Lon":"13.6372277","Category":"peak","Elevation":null},{"OpenStreetMapId":"2322779086","Name":"Grad Šinkov Turn","NameNative":"Grad Šinkov Turn","NameEnglish":"Grad Šinkov Turn","Lat":"46.1614438","Lon":"14.5261333","Category":"castle","Elevation":null},